id,discovery_date,location,threat_target,hazard_type,triggering_factor,disaster_type,development_trend,lon,lat,elevation,aspect,disaster_scale,scale_grade,danger_grade,threatened_property,threatened_households,threatened_people,industry_transferred,industry,rain_3d,rain_7d,rain_30d,api,landuse,landuse_type,ndvi,ndwi,data_source,tpi,distance_to_river,label
2,2013-07-10,汶川县耿达镇龙潭村4组走马林,聚集区,滑坡,地震-降雨,滑坡,,103.29,31.1166666666667,1606.0,358.0,117500m3,中型,中型,600.0,58.0,227.0,否,,27.5332174301147,84.3136653900146,232.034501552582,58.7409815699345,10.0,Trees,0.761019662327464,-0.688754496637297,Landsat 7,-36.8281053952544,127.28,1
4,2008-05-12,汶川县耿达镇龙潭村1组龙潭村委会,聚集区,滑坡,地震-降雨,滑坡,,103.2925,31.1155555555556,1580.0,162.0,29900m3,小型,小型,200.0,10.0,41.0,否,,0.0,9.11534595489502,73.3814578056335,12.0101455138171,50.0,Built-up,0.412695116464195,-0.425311438772927,Landsat 7,-65.9347553325208,180.0,1
8,2011-07-24,汶川县耿达镇龙潭村1组贾学文后山,分散农户,滑坡,地震-降雨,滑坡,,103.291388888889,31.1138888888889,1570.0,191.0,23400m3,小型,小型,20.0,1.0,5.0,否,,0.0,12.2950859069824,215.065487384796,19.3196526500749,30.0,Grassland,0.338670476693352,-0.326658920037861,Landsat 7,-67.7440401505871,0.0,1
9,2011-01-01,汶川县耿达镇龙潭村1组山王庙聚居点对岸,河道,滑坡,地震-降雨,滑坡,,103.293888888889,31.1177777777778,1593.0,180.0,30300m3,小型,小型,50.0,0.0,0.0,是,水利（务）,0.0,0.0,6.48514461517334,1.15856258540111,80.0,Permanent water bodies,0.650309830849104,-0.60170071519009,Landsat 7,-81.5156838143295,0.0,1
12,2011-07-01,汶川县耿达镇龙潭村1组仓旺电站对面,河道,滑坡,地震-降雨,滑坡,,103.295277777778,31.1208333333333,1622.0,112.0,56900m3,小型,小型,20.0,0.0,0.0,是,水利（务）,27.5351028442383,27.5351028442383,130.236973762512,46.0199274434166,60.0,Bare / Sparse vegetation,0.456137525665284,-0.435372709835307,Landsat 7,-82.629861982459,90.0,1
13,2008-05-12,汶川县耿达镇龙潭村2组罗家坡,公路,滑坡,地震-降雨,滑坡,,103.2975,31.1233333333333,1643.0,180.0,22900m3,小型,小型,10.0,0.0,0.0,是,交通运输,0.0,9.11534595489502,73.3814578056335,12.0101455138171,10.0,Trees,0.356629874908021,-0.379861090321229,Landsat 7,-106.460476787982,90.0,1
14,2013-07-20,汶川县耿达镇龙潭村1组刘家房基聚居点,聚集区,滑坡,地震-降雨,滑坡,,103.296388888889,31.1233333333333,1675.0,292.0,50000m3,小型,小型,180.0,10.0,38.0,否,,0.0,60.689338684082,256.355581760406,50.5967693080239,10.0,Trees,0.854962250298601,-0.769741828579195,Landsat 7,-68.5746549561149,127.28,1
15,2008-05-12,汶川县耿达镇龙潭村1组油坊坡,分散农户,滑坡,地震-降雨,滑坡,,103.295,31.1194444444444,1606.0,256.0,34000m3,小型,小型,120.0,6.0,23.0,否,,0.0,9.11534595489502,73.3814578056335,12.0101455138171,30.0,Grassland,0.329283339751499,-0.355054757536672,Landsat 7,-91.8845671267508,0.0,1
17,2011-07-13,汶川县耿达镇龙潭村6组喇嘛地,公路,滑坡,地震-降雨,滑坡,,103.286388888889,31.1183333333333,1586.0,181.0,98100m3,小型,小型,20.0,0.0,0.0,是,交通运输,13.0602893829346,54.0037593841553,298.94212770462,62.650685154718,30.0,Grassland,0.267497839772868,-0.235292702293015,Landsat 7,-116.033877038919,0.0,1
19,2008-05-12,汶川县耿达镇龙潭村7组崔家河坝,聚集区,滑坡,地震-降雨,滑坡群,,103.28,31.1208333333333,1598.0,102.0,111500m3,中型,小型,140.0,5.0,24.0,否,,0.0,9.11534595489502,73.3814578056335,12.0101455138171,10.0,Trees,0.483698763799402,-0.497647614241295,Landsat 7,-114.538268506926,90.0,1
24,2008-05-12,汶川县耿达镇龙潭村7组龙潭大坝下游左岸,公路,滑坡,地震-降雨,滑坡,,103.265,31.1222222222222,1630.0,241.0,71600m3,小型,小型,50.0,0.0,0.0,是,交通运输,0.0,9.11534595489502,73.3814578056335,12.0101455138171,10.0,Trees,0.326808808109053,-0.331929824561404,Landsat 7,-169.404015056486,90.0,1
25,2008-05-12,汶川县耿达镇龙潭村7组龙潭电站大坝,公路,滑坡,地震-降雨,滑坡,,103.261388888889,31.1222222222222,1670.0,105.0,88000m3,小型,小型,30.0,0.0,0.0,是,交通运输,0.0,9.11534595489502,73.3814578056335,12.0101455138171,80.0,Permanent water bodies,0.149812176272981,-0.115692791881433,Landsat 7,-160.575909661256,90.0,1
28,2008-05-12,汶川县耿达镇龙潭村7组正河桥头下游左岸1#,公路,滑坡,地震-降雨,滑坡,,103.255,31.1225,1671.0,125.0,8000m3,小型,小型,10.0,0.0,0.0,是,交通运输,0.0,9.11534595489502,73.3814578056335,12.0101455138171,10.0,Trees,0.604248450943112,-0.580468676306109,Landsat 7,-112.909661229638,90.0,1
32,2008-05-12,汶川县耿达镇龙潭村7组蜂桶槽,分散农户,滑坡,地震-降雨,滑坡,,103.247777777778,31.1219444444444,1730.0,115.0,28000m3,小型,小型,80.0,4.0,19.0,否,,0.0,16.158848285675,94.6068110466003,16.9607366566668,10.0,Trees,0.783373063170441,-0.700226128654705,Landsat 7,-115.484316185725,180.0,1
33,2008-05-12,汶川县耿达镇龙潭村7组中桥下游右岸1号,河道,滑坡,地震-降雨,滑坡,,103.253055555556,31.0988888888889,1739.0,163.0,15000m3,小型,小型,0.0,0.0,0.0,是,水利（务）,0.0,0.0,40.737958908081,2.19041061216463,10.0,Trees,0.184785721103369,-0.241349653986159,Landsat 7,-152.003764115461,0.0,1
43,2008-05-12,汶川县耿达镇龙潭村7组中桥下游右岸6#,河道,滑坡,地震-降雨,滑坡,,103.254166666667,31.1105555555556,1798.0,170.0,7500m3,小型,小型,0.0,0.0,0.0,是,水利（务）,0.0,9.11534595489502,73.3814578056335,12.0101455138171,80.0,Permanent water bodies,0.5494791444489,-0.524865032786748,Landsat 7,-114.815558343819,0.0,1
78,2008-05-12,汶川县耿达镇幸福村2组张家沟,聚集区,滑坡,地震-降雨,滑坡,,103.315555555556,31.095,1660.0,144.0,192000m3,中型,中型,700.0,35.0,120.0,否,,0.0,15.2150478363037,81.4182205200195,15.8117654481224,10.0,Trees,0.762847382788609,-0.709685119680563,Landsat 7,-41.6160602258723,180.0,1
123,2014-07-16,汶川县漩口镇水田坪村2组冯理建屋后,分散农户,滑坡,地震-降雨,滑坡,,103.504444444444,31.0044444444444,1006.0,351.0,8000m3,小型,小型,30.0,1.0,6.0,否,,32.8461799621582,136.274919509888,244.110714912414,77.7080399343993,10.0,Trees,0.625381094938233,-0.534098511864165,Landsat 7,8.82308657463966,180.0,1
124,2015-08-15,汶川县漩口镇核桃坪村1组廖家农家乐,聚集区,滑坡,人为因素,滑坡,,103.5075,31.0016666666667,1067.0,114.0,200000m3,中型,中型,1000.0,37.0,104.0,否,,0.0,0.0,182.260025978088,26.7197222485569,10.0,Trees,0.684434128156432,-0.594964867294948,Landsat 7,-14.9573400251092,90.0,1
125,2013-07-10,汶川县漩口镇赵家坪村2组赵家坪,聚集区,滑坡,地震-降雨,滑坡,,103.449444444444,30.9666666666667,1014.0,109.0,18000m3,小型,小型,150.0,12.0,35.0,否,,65.3691730499268,143.507978439331,277.351511955261,100.459596077938,10.0,Trees,0.453260579127231,-0.480398547350778,Landsat 7,-42.085319949828,90.0,1
127,2016-07-15,汶川县漩口镇赵家坪3组农辉鸡场上方,聚集区,滑坡,人为因素,滑坡,,103.451388888889,30.9638888888889,1001.0,105.0,400000m3,中型,中型,1000.0,30.0,80.0,否,,,,,,10.0,Trees,0.735697960774587,-0.647711791715021,Landsat 7,23.530740276019745,254.56,1
129,2006-09-15,汶川县漩口镇集中村1组白庙子,聚集区,滑坡,地震-降雨,滑坡,,103.465555555556,30.9838888888889,874.0,70.0,10000000m3,巨型,中型,1500.0,49.0,98.0,否,,18.8882541656494,23.5286130905151,207.045858383179,34.3410838165268,10.0,Trees,0.653446407790366,-0.554520131041985,Landsat 7,-17.037641154343,90.0,1
131,2013-07-10,汶川县漩口镇集中村2组桐籽坪,分散农户,滑坡,地震-降雨,滑坡,,103.459166666667,30.9802777777778,941.0,105.0,15000m3,小型,小型,90.0,6.0,18.0,否,,67.9856815338135,152.57765007019,291.041479587555,108.607176939793,10.0,Trees,0.609132705805539,-0.537692622657819,Landsat 7,0.7415307402615099,324.5,1
137,2009-06-23,汶川县漩口镇八角庙村2组沙子坡,分散农户,滑坡,地震-降雨,滑坡,,103.408888888889,30.9808333333333,1386.0,148.0,30000m3,小型,小型,50.0,4.0,8.0,否,,0.0,14.6900181770325,72.3518013954163,10.0867401292069,10.0,Trees,0.799167365658835,-0.722055270755996,Landsat 7,3.0225846925761743,127.28,1
139,2013-07-10,汶川县漩口镇小麻溪村2组锂电厂厂棚对面,其它,滑坡,地震-降雨,滑坡,,103.445,30.9977777777778,1001.0,5.0,30000m3,小型,小型,200.0,0.0,0.0,是,经济和信息化,65.3691730499268,143.507978439331,277.351511955261,100.459596077938,50.0,Built-up,,,Landsat 7,-38.8933500627511,0.0,1
147,2008-05-12,汶川县漩口镇宇宫村1组清水塘,分散农户-公路,滑坡,地震-降雨,滑坡,,103.445277777778,30.99,1084.0,93.0,28000m3,小型,小型,50.0,2.0,9.0,否,,0.0,7.07919216156006,57.134220123291,9.61390400052348,10.0,Trees,0.762690565620857,-0.685743150888453,Landsat 7,-6.49937264744426,284.6,1
149,2008-05-12,汶川县漩口镇油碾村1组,分散农户,滑坡,地震-降雨,滑坡,,103.458055555556,30.9994444444444,901.0,81.0,21600m3,小型,小型,100.0,2.0,10.0,否,,0.0,7.1729416847229,48.4257998466492,9.92952054040613,50.0,Built-up,0.284018150437058,-0.288258911426876,Landsat 7,-24.4818067754212,90.0,1
150,2013-07-10,汶川县漩口镇圣音寺村1组易平富房前,分散农户,滑坡,地震-降雨,滑坡,,103.4675,31.0080555555556,913.0,28.0,62400m3,小型,小型,80.0,4.0,11.0,否,,65.0414886474609,148.1337890625,286.944443702698,105.485022522298,10.0,Trees,0.468139984758778,-0.433026263088631,Landsat 7,11.658720200739822,458.91,1
151,2013-07-10,汶川县漩口镇圣音寺村1组安家坪,分散农户,滑坡,地震-降雨,滑坡,,103.466944444444,31.0069444444444,922.0,81.0,56000m3,小型,小型,40.0,2.0,8.0,否,,65.0414886474609,148.1337890625,286.944443702698,105.485022522298,10.0,Trees,0.532461223498386,-0.47178991568634,Landsat 7,23.668757841893694,371.08,1
152,2013-07-10,汶川县漩口镇圣音寺村1组王强屋后,分散农户,滑坡,地震-降雨,滑坡,,103.465833333333,31.0091666666667,989.0,8.0,44000m3,小型,小型,80.0,4.0,11.0,否,,65.0414886474609,148.1337890625,286.944443702698,105.485022522298,30.0,Grassland,0.716738442558344,-0.618796283829272,Landsat 7,12.367628607262075,576.28,1
153,2008-05-12,汶川县漩口镇圣音寺村1组铝厂,其它,滑坡,地震-降雨,滑坡,,103.466944444444,31.0208333333333,1020.0,330.0,120000m3,中型,小型,30.0,0.0,0.0,是,经济和信息化,0.0,7.50755405426025,48.5135290622711,10.4016189608646,10.0,Trees,0.599346451658734,-0.541913980458406,Landsat 7,1.4316185696211503,371.08,1
163,2008-05-12,汶川县漩口镇蔡家杠村1组蔡家杠,公路,滑坡,地震-降雨,滑坡,,103.475833333333,31.0405555555556,896.0,90.0,100000m3,中型,小型,50.0,0.0,0.0,是,交通运输,0.0,7.50755405426025,48.5135290622711,10.4016189608646,10.0,Trees,0.534181989627534,-0.47318117795855,Landsat 7,4.831869510652268,180.0,1
168,2008-05-12,汶川县漩口镇红福山村1组鱼跳沟,其它,滑坡,地震-降雨,滑坡,,103.460555555556,30.9655555555556,929.0,79.0,21000m3,小型,小型,0.0,0.0,0.0,否,,0.0,7.1729416847229,48.4257998466492,9.92952054040613,10.0,Trees,0.735878564226382,-0.639279699442933,Landsat 7,-37.8494353827003,90.0,1
169,2008-05-12,汶川县漩口镇安子坪村3组安子坪村,其它,滑坡,地震-降雨,滑坡,,103.475555555556,30.9733333333333,1196.0,131.0,17000m3,小型,小型,0.0,0.0,0.0,否,,0.0,7.1729416847229,48.4257998466492,9.92952054040613,10.0,Trees,0.820075976928957,-0.723465157596894,Landsat 7,-10.2634880803179,381.84,1
171,2009-07-17,汶川县漩口镇群益村2组毛领山,聚集区,滑坡,降雨-人为因素,滑坡,,103.491388888889,31.0030555555556,886.0,150.0,400000m3,中型,小型,300.0,24.0,64.0,否,,86.9856796264648,86.9856796264648,196.621082782745,88.2465289650078,10.0,Trees,0.499743445236072,-0.450228563062257,Landsat 7,-4.16938519449297,180.0,1
176,2008-05-12,汶川县漩口镇水田坪村1组小丫口,公路,滑坡,地震-降雨,滑坡,,103.516944444444,31.0133333333333,985.0,56.0,17000m3,小型,小型,20.0,0.0,0.0,是,交通运输,0.0,0.0,27.3709526062012,2.27736924065963,10.0,Trees,0.672049985833371,-0.562720817276535,Landsat 7,-25.2409033877177,569.21,1
178,2013-07-14,汶川县漩口镇水田坪村1组水田坪村,聚集区,滑坡,地震-降雨,滑坡,,103.512777777778,31.0066666666667,1036.0,259.0,105000m3,中型,小型,250.0,12.0,41.0,否,,16.2228317260742,109.620620727539,325.978370666504,83.5596250602096,10.0,Trees,,,Landsat 7,-8.73776662485875,742.16,1
179,2017-07-07,汶川县漩口镇小麻溪村2组黄土坡,分散农户,滑坡,地震-降雨,滑坡,,103.445277777778,30.9980555555556,1002.0,124.0,15000m3,小型,小型,30.0,2.0,5.0,否,,,,,,50.0,Built-up,,,Landsat 7,-41.5734002509575,90.0,1
180,2017-07-08,汶川县漩口镇圣音寺村2组安置点,分散农户,滑坡,地震-降雨,滑坡,,103.467222222222,31.0130555555556,938.0,180.0,3000m3,小型,小型,120.0,3.0,12.0,否,,,,,,10.0,Trees,,,Landsat 7,-16.1242158092993,270.0,1
181,2017-07-08,汶川县漩口镇油碾村2组养猪场后,公路-其它,滑坡,地震-降雨,滑坡,,103.46,31.0069444444444,1088.0,74.0,2000m3,小型,小型,400.0,0.0,2.0,是,经济和信息化,,,,,10.0,Trees,0.683724101359797,-0.606524593718753,Landsat 7,2.948557089068345,540.0,1
182,2017-07-10,汶川县漩口镇古溪村5组马腰杆,聚集区,滑坡,地震-降雨,滑坡,,103.4575,30.9875,1222.0,122.0,60000m3,小型,小型,400.0,20.0,60.0,否,,,,,,10.0,Trees,,,Landsat 7,109.23337515682238,1018.23,1
183,2017-07-10,汶川县漩口镇古溪村5组马家大坡,聚集区,滑坡,地震-降雨,滑坡,,103.45,30.985,1255.0,123.0,110000m3,中型,中型,800.0,110.0,220.0,否,,,,,,10.0,Trees,0.823322242565435,-0.74085452613117,Landsat 7,20.91593475531272,926.61,1
185,2017-07-13,汶川县漩口镇水田坪村1组林专队,聚集区,滑坡,地震-降雨,滑坡,,103.515555555556,31.0080555555556,1034.0,117.0,150000m3,中型,小型,300.0,18.0,52.0,否,,,,,,30.0,Grassland,0.661754591351431,-0.550792426032271,Landsat 7,-38.2245922208453,973.5,1
187,2017-07-16,汶川县漩口镇群益村5组望乡台,分散农户,滑坡,地震-降雨,滑坡,,103.4875,30.9819444444444,1288.0,270.0,20000m3,小型,小型,15.0,1.0,3.0,否,,,,,,10.0,Trees,0.900936965788847,-0.747453851050286,Landsat 7,14.8105395231928,939.63,1
190,2017-07-17,汶川县漩口镇安子坪村5组五组砖厂矿山,公路,滑坡,地震-降雨,滑坡,,103.460555555556,30.9713888888889,977.0,34.0,80000m3,小型,小型,20.0,0.0,0.0,是,交通运输,,,,,30.0,Grassland,0.357214335686011,-0.394293928201023,Landsat 7,22.259723964854288,360.0,1
191,2017-07-17,汶川县漩口镇集中村1组矿石脚下,其它,滑坡,地震-降雨,滑坡,,103.466944444444,30.9902777777778,1132.0,100.0,80000m3,小型,小型,50.0,0.0,0.0,是,经济和信息化,,,,,10.0,Trees,0.50819575367289,-0.499240152790898,Landsat 7,26.928481806756736,603.74,1
193,2017-07-21,汶川县漩口镇集中村3组尖石包,分散农户-公路,滑坡,地震-降雨,滑坡,,103.458055555556,30.9791666666667,952.0,270.0,80000m3,小型,小型,400.0,6.0,24.0,否,,,,,,10.0,Trees,0.634433835756048,-0.549629384765997,Landsat 7,10.705144291076408,324.5,1
194,2017-07-21,汶川县漩口镇集中村3组周家湾,聚集区-公路,滑坡,地震-降雨,滑坡,,103.459166666667,30.9808333333333,948.0,90.0,80000m3,小型,小型,450.0,9.0,42.0,否,,,,,,10.0,Trees,0.593584959260359,-0.552244813251913,Landsat 7,-4.59598494355282,402.49,1
195,2017-07-21,汶川县漩口镇赵家坪村2组鸡公石,聚集区,滑坡,地震-降雨,滑坡,,103.4475,30.9719444444444,1301.0,190.0,250000m3,中型,中型,600.0,46.0,112.0,否,,,,,,10.0,Trees,0.85004594440992,-0.762515117320528,Landsat 7,6.984943538248899,725.6,1
196,2017-07-21,汶川县漩口镇集中村4组灯盏窝,聚集区,滑坡,地震-降雨,滑坡,,103.4525,30.9788888888889,1091.0,225.0,150000m3,中型,中型,1500.0,35.0,95.0,否,,,,,,10.0,Trees,,,Landsat 7,-20.81932245924,201.25,1
197,2017-07-21,汶川县漩口镇赵家坪村3组柒树堂,分散农户,滑坡,地震-降雨,滑坡,,103.445833333333,30.9655555555556,1199.0,359.0,100000m3,中型,小型,150.0,10.0,27.0,否,,,,,,10.0,Trees,0.791320900966624,-0.709441966713804,Landsat 7,7.766624843142836,547.45,1
198,2017-07-21,汶川县漩口镇赵家坪村3组蚂蟥嘴,分散农户,滑坡,地震-降雨,滑坡,,103.442777777778,30.9641666666667,1376.0,359.0,800000m3,中型,小型,150.0,8.0,24.0,否,,,,,,10.0,Trees,0.811647982500683,-0.732730601113311,Landsat 7,63.890840652428096,853.81,1
199,2017-07-21,汶川县漩口镇安子坪村1组刘家杠,聚集区,滑坡,地震-降雨,滑坡,,103.473333333333,30.9819444444444,979.0,330.0,10000m3,小型,小型,200.0,15.0,39.0,否,,,,,,10.0,Trees,0.751604012788006,-0.652100374324137,Landsat 7,10.02258469258254,90.0,1
201,2017-07-23,汶川县漩口镇响黄沟震源新村雕塑停车场,分散农户-景区,滑坡,地震-降雨,滑坡,,103.469722222222,31.0394444444444,1026.0,110.0,1200m3,小型,小型,120.0,6.0,24.0,否,,,,,,10.0,Trees,,,Landsat 7,29.584692597225057,284.6,1
202,2017-07-09,汶川县漩口镇圣音寺村1组通村公路,分散农户,滑坡,地震-降雨,滑坡,,103.466388888889,31.0077777777778,937.0,45.0,500m3,小型,小型,30.0,1.0,5.0,否,,,,,,10.0,Trees,0.37822475439951,-0.3742003132383,Landsat 7,4.169385194465349,458.91,1
205,2018-07-15,汶川县漩口镇安子坪村至烈士陵园通村公路1号,公路,滑坡,降雨-人为因素,滑坡,,103.48,30.9805555555556,1179.0,339.0,500m3,小型,小型,50.0,0.0,0.0,是,交通运输,,,,,10.0,Trees,0.807739546012817,-0.685615275981154,Landsat 7,21.27603513172608,524.79,1
206,2018-07-15,汶川县漩口镇安子坪村至烈士陵园通村公路2号,公路,滑坡,降雨-人为因素,滑坡,,103.479444444444,30.9816666666667,1112.0,112.0,1000m3,小型,小型,50.0,0.0,0.0,是,交通运输,,,,,10.0,Trees,0.82223781587343,-0.675605107966567,Landsat 7,-10.9410288582359,524.79,1
208,2018-07-15,汶川县漩口镇集中村2组伊成根家对面,公路,滑坡,降雨,滑坡,,103.46,30.9830555555556,972.0,225.0,2000m3,小型,小型,60.0,0.0,0.0,是,交通运输,,,,,10.0,Trees,0.656520999829961,-0.559478146298816,Landsat 7,-10.2333751568535,450.0,1
209,2018-07-15,汶川县漩口镇群益村毛阴山安置点,公路,滑坡,降雨,滑坡,,103.4925,31.0033333333333,902.0,285.0,12000m3,小型,小型,100.0,0.0,0.0,是,交通运输,,,,,60.0,Bare / Sparse vegetation,0.359020598917985,-0.35171914341774,Landsat 7,9.013801756574026,254.56,1
211,2012-09-22,汶川县漩口镇核桃坪村1组,分散农户,滑坡,地震-降雨,滑坡,,103.5075,31.0013888888889,1069.0,280.0,60000m3,小型,中型,800.0,18.0,52.0,否,,36.6363868713379,47.4565258026123,146.573857307434,45.1382559142142,10.0,Trees,0.725177845708652,-0.619427430093209,Landsat 7,-18.7427854454354,90.0,1
214,2014-06-12,汶川县漩口镇油碾村2组安置点后,分散农户,滑坡,地震-降雨,滑坡,,103.4575,30.9875,1222.0,350.0,4000m3,小型,小型,160.0,7.0,24.0,否,,0.0,0.0,114.74856376648,25.708559200383,10.0,Trees,,,Landsat 7,109.23337515682238,1018.23,1
215,2019-08-23,汶川县漩口镇圣音寺村2组周家地,分散农户,滑坡,降雨,滑坡,,103.466944444444,31.0125,953.0,65.0,650000m3,中型,小型,55.0,4.0,11.0,否,,,,,,10.0,Trees,,,Landsat 7,-7.74529485572395,270.0,1
216,2019-08-22,汶川县漩口镇群益村5组水井槽,分散农户-公路,滑坡,降雨,滑坡,,103.485277777778,30.9827777777778,1171.0,148.0,1480000m3,大型,小型,25.0,3.0,5.0,否,,,,,,10.0,Trees,,,Landsat 7,-31.2308657465673,994.08,1
217,2019-08-24,汶川县漩口镇圣音寺村2组檬子杠,公路-其它,滑坡,降雨,滑坡,,103.464444444444,31.0163888888889,1090.0,153.0,1530000m3,大型,小型,50.0,0.0,0.0,是,交通运输,,,,,10.0,Trees,0.636460495034547,-0.54727931558135,Landsat 7,11.122961104123078,774.21,1
222,2008-06-13,汶川县灞州镇下庄村1组黑土坡,聚集区,滑坡,地震-降雨,滑坡,,103.515555555556,31.5388888888889,1524.0,201.0,20000m3,小型,小型,490.0,14.0,48.0,否,,0.0,42.7973594665527,168.757111549377,23.8911182148372,30.0,Grassland,0.251532689680659,-0.308923505904602,Landsat 7,-6.35382685071545,180.0,1
227,2008-05-12,汶川县灞州镇下庄村1组供菩萨,聚集区,滑坡,地震-降雨,滑坡,,103.533055555556,31.5275,1523.0,223.0,600000m3,中型,中型,960.0,32.0,135.0,否,,0.0,0.0,39.1929821968079,1.87280422159263,30.0,Grassland,0.500798429754815,-0.473963651215029,Landsat 7,-21.3550815558585,90.0,1
233,2008-05-12,汶川县灞州镇下庄村1组沙沙地,分散农户,滑坡,地震-降雨,滑坡,,103.520833333333,31.5338888888889,1429.0,182.0,105000m3,中型,小型,140.0,4.0,12.0,否,,0.0,0.0,39.1929821968079,1.87280422159263,30.0,Grassland,0.573824212271974,-0.560388824581711,Landsat 7,-69.9033877039121,90.0,1
240,2013-07-10,汶川县灞州镇克枯村河坝组一股水,分散农户,滑坡,降雨,滑坡,,103.577777777778,31.495,1427.0,269.0,180000m3,中型,小型,175.0,5.0,18.0,否,,20.863561630249,69.4266033172607,211.852945327759,48.7213303441751,30.0,Grassland,0.629263805166195,-0.582350405580156,Landsat 7,-37.4153074027815,180.0,1
243,2008-06-10,汶川县灞州镇克枯村小克枯,聚集区,滑坡,降雨,滑坡,,103.565555555556,31.5152777777778,1507.0,260.0,480000m3,中型,中型,1715.0,49.0,170.0,否,,0.0,43.4683418273926,119.971172332764,30.3654254236141,10.0,Trees,,,Landsat 7,-12.209535759121,324.5,1
244,2013-07-10,汶川县灞州镇克枯村大克枯组背板火地,公路,滑坡,降雨,滑坡,,103.579166666667,31.5116666666667,1880.0,246.0,29000m3,小型,小型,200.0,0.0,0.0,是,交通运输,19.6830310821533,69.6033267974854,213.482015609741,47.6788491280355,10.0,Trees,0.802754619197837,-0.740602500560893,Landsat 7,-29.5382685069303,402.49,1
252,2013-07-10,汶川县灞州镇克枯村小克枯组三岔路口,分散农户-公路,滑坡,降雨,滑坡,,103.5625,31.515,1483.0,60.0,25000m3,小型,小型,120.0,2.0,9.0,否,,19.6830310821533,69.6033267974854,213.482015609741,47.6788491280355,10.0,Trees,0.747599318916609,-0.657125301504089,Landsat 7,4.09033877036677,180.0,1
253,2005-06-17,汶川县灞州镇周达村小寺组塔子,聚集区,滑坡,降雨,滑坡,,103.5675,31.5238888888889,1988.0,102.0,378000m3,中型,小型,380.0,11.0,43.0,否,,22.0831604003906,22.0831604003906,51.8615837097168,23.060702489724,30.0,Grassland,,,Landsat 7,9.494353826820088,450.0,1
256,2008-05-12,汶川县灞州镇周达村周达组无辜里,聚集区,滑坡,降雨,滑坡,,103.561666666667,31.5202777777778,1670.0,136.0,155000m3,中型,小型,420.0,12.0,65.0,否,,0.0,9.57162857055664,63.5381774902344,11.651985477425,30.0,Grassland,0.547019286081928,-0.535639956422104,Landsat 7,-28.5545796738024,90.0,1
259,2010-07-01,汶川县灞州镇木上村1组找基口,聚集区,滑坡,地震-降雨,滑坡,,103.54,31.5330555555556,2015.0,165.0,6600000m3,大型,中型,2880.0,96.0,325.0,否,,18.5393333435059,18.5393333435059,124.854525566101,27.3132789468434,30.0,Grassland,0.749014764653641,-0.681634123399798,Landsat 7,-40.7214554579995,254.56,1
261,2012-07-01,汶川县灞州镇大寺村磊底组磨村,聚集区,滑坡,降雨,滑坡,,103.595,31.5227777777778,2253.0,307.0,812000m3,中型,中型,910.0,26.0,99.0,否,,0.0,37.5467987060547,114.130916595459,24.4002000361574,30.0,Grassland,0.719638353494314,-0.665121498664184,Landsat 7,9.98243412794227,547.45,1
269,2008-05-12,汶川县灞州镇阿尔村1组大槽,其它,滑坡,地震-降雨,滑坡,,103.580277777778,31.6197222222222,2274.0,134.0,54000m3,小型,中型,600.0,0.0,0.0,是,水利（务）,0.0,0.0,38.4496297836304,1.48543223390673,30.0,Grassland,,,Landsat 7,-147.154328732783,90.0,1
271,2008-05-12,汶川县灞州镇阿尔村1组俄甲,分散农户,滑坡,降雨,滑坡,,103.578333333333,31.6172222222222,2452.0,328.0,3000m3,小型,小型,60.0,2.0,8.0,否,,0.0,0.0,38.4496297836304,1.48543223390673,10.0,Trees,0.855985117273877,-0.799106974132485,Landsat 7,1.902132998707657,284.6,1
272,2008-05-12,汶川县灞州镇阿尔村1组阿尔寨,聚集区,滑坡,地震-降雨,滑坡,,103.580555555556,31.6127777777778,2432.0,135.0,150000m3,中型,中型,750.0,25.0,89.0,否,,0.0,0.0,38.4496297836304,1.48543223390673,30.0,Grassland,0.81613859687814,-0.741050999553666,Landsat 7,33.78670012543444,324.5,1
273,2008-05-12,汶川县灞州镇阿尔村4组立别,聚集区,滑坡,地震-降雨,滑坡,,103.579166666667,31.61,2376.0,86.0,80000m3,小型,小型,390.0,13.0,45.0,否,,0.0,0.0,38.4496297836304,1.48543223390673,30.0,Grassland,0.791706387035272,-0.742416402561283,Landsat 7,15.877038895824626,324.5,1
281,2013-07-10,汶川县灞州镇联合村1组大槽,公路,滑坡,地震-降雨,滑坡,,103.550555555556,31.5769444444444,1715.0,284.0,12000m3,小型,小型,20.0,0.0,0.0,是,交通运输,16.4068851470947,66.8723545074463,222.742202758789,46.604609029296,30.0,Grassland,0.371790348243471,-0.410206749293384,Landsat 7,-158.488080301158,0.0,1
284,2011-07-01,汶川县灞州镇联合村1组阿不里,聚集区,滑坡,降雨,滑坡,,103.543888888889,31.5708333333333,1652.0,295.0,1428000m3,大型,中型,1960.0,56.0,235.0,否,,35.3375444412231,49.3190641403198,131.040289878845,55.3342922496202,10.0,Trees,0.560263268899855,-0.545578754675935,Landsat 7,-102.875784190742,90.0,1
290,2008-05-12,汶川县灞州镇联合村2组三座磨,河道,滑坡,地震-降雨,滑坡,,103.531944444444,31.565,1553.0,292.0,15000m3,小型,小型,10.0,0.0,0.0,是,水利（务）,0.0,0.0,39.0186586380005,1.50952933590735,10.0,Trees,,,Landsat 7,-128.317440401531,90.0,1
299,2012-06-01,汶川县灞州镇联合村2组厂部公路,公路,滑坡,地震-降雨,滑坡,,103.5225,31.5602777777778,1554.0,359.0,40000m3,小型,小型,200.0,0.0,0.0,是,交通运输,0.0,78.5668029785156,193.068614959717,49.7050470112057,60.0,Bare / Sparse vegetation,0.599854303257363,-0.548020038768472,Landsat 7,-98.2647427854701,90.0,1
301,2008-05-12,汶川县灞州镇联合村2组弯弯田,分散农户,滑坡,降雨,滑坡群,,103.525555555556,31.5641666666667,1668.0,240.0,1200m3,小型,小型,90.0,5.0,26.0,否,,0.0,0.0,39.0186586380005,1.50952933590735,30.0,Grassland,0.427839008965634,-0.447627591575031,Landsat 7,-32.2371392722952,270.0,1
305,2005-03-08,汶川县灞州镇垮坡村1组垮坡组,分散农户,滑坡,降雨,滑坡,,103.535,31.5888888888889,1967.0,339.0,7500m3,小型,小型,120.0,4.0,16.0,否,,0.990552127361298,7.05943149328232,25.2405404150486,5.17447942398155,10.0,Trees,0.297525538119547,-0.32457202346487,Landsat 7,-118.791718946079,90.0,1
315,2008-05-12,汶川县灞州镇俄布村1组坡基,其它,滑坡,地震,滑坡,,103.556666666667,31.5708333333333,2177.0,295.0,56000m3,小型,小型,0.0,0.0,0.0,否,,0.0,0.0,38.7649292945862,1.68472108806849,30.0,Grassland,0.612379819805293,-0.574844228327313,Landsat 7,89.090338770357,484.66,1
316,2008-05-12,汶川县灞州镇俄布村1组磨刀石,其它,滑坡,地震,滑坡,,103.56,31.5708333333333,2316.0,346.0,90000m3,小型,小型,0.0,0.0,0.0,否,,0.0,0.0,38.7649292945862,1.68472108806849,30.0,Grassland,0.794112746946327,-0.716939808171588,Landsat 7,58.37390213296658,685.42,1
317,2008-05-12,汶川县灞州镇俄布村2组地里,聚集区,滑坡,地震,滑坡,,103.571944444444,31.5763888888889,2308.0,346.0,400000m3,中型,中型,540.0,18.0,70.0,否,,0.0,0.0,38.7649292945862,1.68472108806849,30.0,Grassland,,,Landsat 7,-72.1267252196103,324.5,1
318,2008-05-12,汶川县灞州镇俄布村1组俄布,其它,滑坡,地震-降雨,滑坡,,103.559166666667,31.5580555555556,2284.0,134.0,6750m3,小型,小型,0.0,0.0,0.0,否,,0.0,0.0,38.7649292945862,1.68472108806849,30.0,Grassland,0.72988310231262,-0.687427187550748,Landsat 7,-76.7528230866082,90.0,1
319,2008-05-12,汶川县灞州镇俄布村1组巴塔,其它,滑坡,地震,滑坡,,103.559166666667,31.5555555555556,2371.0,55.0,21600m3,小型,小型,0.0,0.0,0.0,否,,0.0,0.0,38.7649292945862,1.68472108806849,10.0,Trees,0.687748384247923,-0.617570960016159,Landsat 7,-77.5972396487218,270.0,1
320,2008-05-12,汶川县灞州镇龙溪村1组新房子,分散农户,滑坡,地震,滑坡,,103.546388888889,31.5641666666667,2044.0,142.0,130000m3,中型,小型,60.0,2.0,9.0,否,,0.0,0.0,39.0186586380005,1.50952933590735,10.0,Trees,0.547218761451081,-0.534109405883037,Landsat 7,-5.08657465498708,636.4,1
322,1990-07-01,汶川县灞州镇龙溪村1组龙溪寨,聚集区,滑坡,降雨,滑坡,,103.546388888889,31.5694444444444,1820.0,261.0,62500m3,小型,中型,1960.0,19.0,83.0,否,,30.5168304443359,30.5168304443359,162.43124294281,37.8092470349452,10.0,Trees,0.795205289011091,-0.725006493747449,Landsat 7,-36.6286072773198,324.5,1
323,2008-05-12,汶川县灞州镇布兰村1组竹别达,聚集区,滑坡,地震-降雨,滑坡,,103.5425,31.5541666666667,2295.0,271.0,350000m3,中型,中型,690.0,23.0,92.0,否,,0.0,0.0,39.0186586380005,1.50952933590735,10.0,Trees,,,Landsat 7,-22.2446675031701,484.66,1
324,2008-05-12,汶川县灞州镇布兰村2组瓦戈,其它,滑坡,地震-降雨,滑坡,,103.545277777778,31.5602777777778,2132.0,315.0,78000m3,小型,小型,0.0,0.0,0.0,否,,0.0,0.0,39.0186586380005,1.50952933590735,30.0,Grassland,0.679037551357873,-0.647690957561307,Landsat 7,12.50690087826206,201.25,1
326,2008-05-12,汶川县灞州镇联合村三座磨组大坪,河道,滑坡,地震-降雨,滑坡,,103.528888888889,31.565,1704.0,185.0,15000m3,小型,小型,10.0,0.0,0.0,是,水利（务）,0.0,0.0,39.0186586380005,1.50952933590735,30.0,Grassland,,,Landsat 7,2.629861982409011,270.0,1
327,2020-03-10,汶川县灞州镇大门村枇杷墩子,分散农户-河道,滑坡,地震-其他,滑坡,,103.496388888889,31.5630555555556,1969.0,213.0,100000m3,中型,中型,2000.0,10.0,32.0,否,,,,,,30.0,Grassland,0.577615944806439,-0.560256504754183,Landsat 7,67.6323713926945,360.0,1
328,2017-07-07,汶川县灞州镇周达村宝顶山,聚集区,滑坡,地震-降雨,滑坡,,103.559166666667,31.5313888888889,2506.0,245.0,1200000m3,大型,中型,1960.0,56.0,241.0,否,,,,,,10.0,Trees,0.878116817724069,-0.799477998253562,Landsat 7,72.81430363860818,547.45,1
334,2017-07-04,汶川县灞州镇周达村小寺组沃尔补,聚集区,滑坡,地震-降雨,滑坡,,103.575833333333,31.5263888888889,2211.0,131.0,475000m3,中型,中型,1650.0,47.0,195.0,否,,,,,,30.0,Grassland,0.700059966632428,-0.670065091104216,Landsat 7,-28.2810539523566,1170.0,1
336,2017-07-07,汶川县灞州镇大寺村水井,分散农户,滑坡,地震-降雨,滑坡,,103.580833333333,31.5152777777778,1683.0,343.0,51000m3,小型,小型,240.0,4.0,21.0,否,,,,,,10.0,Trees,0.638000796207159,-0.620836854846796,Landsat 7,-101.681304893376,0.0,1
338,2017-07-07,汶川县灞州镇大寺村大寺组,分散农户,滑坡,地震-降雨,滑坡,,103.588888888889,31.5222222222222,1974.0,180.0,2000m3,小型,中型,600.0,11.0,63.0,否,,,,,,10.0,Trees,0.799430955017123,-0.737663952259589,Landsat 7,-43.5909661229923,90.0,1
363,2013-07-01,汶川县威州镇月里村4组大湾道梁子,分散农户,滑坡,降雨,滑坡,,103.638888888889,31.4713888888889,2007.0,20.0,5200m3,小型,小型,40.0,1.0,4.0,否,,15.6663417816162,34.4456748962402,179.87548828125,43.2920498180013,30.0,Grassland,0.494027486406645,-0.528161304247186,Landsat 7,2.3638644918153204,270.0,1
364,2008-07-01,汶川县威州镇月里村4组卡边地,公路,滑坡,降雨,滑坡,,103.638888888889,31.47,1999.0,270.0,1200m3,小型,小型,5.0,0.0,0.0,是,交通运输,25.8491020202637,35.107515335083,114.172542572021,35.1626120613243,30.0,Grassland,0.757301867566874,-0.696903236467151,Landsat 7,-15.1944792973952,360.0,1
365,2009-06-01,汶川县威州镇月里村4组大水沟,聚集区,滑坡,降雨,滑坡,,103.635,31.4738888888889,1893.0,271.0,374000m3,中型,中型,750.0,25.0,93.0,否,,11.2552089691162,22.5104179382324,93.1242294311523,23.726401294374,30.0,Grassland,0.636795624106578,-0.613395528389899,Landsat 7,-13.4140526976452,127.28,1
366,2012-06-01,汶川县威州镇月里村4组那妈地,聚集区,滑坡,降雨,滑坡,,103.636388888889,31.4747222222222,1937.0,91.0,32600m3,小型,小型,300.0,10.0,44.0,否,,0.0,64.0431003570557,163.135484695435,41.2691743163936,60.0,Bare / Sparse vegetation,0.474072152822598,-0.504926472399438,Landsat 7,-32.3475533249995,127.28,1
370,2013-06-01,汶川县威州镇麦地村2组花石坡,公路,滑坡,降雨,滑坡,,103.620833333333,31.4727777777778,1501.0,262.0,120000m3,中型,小型,80.0,0.0,0.0,是,交通运输,34.5338487625122,55.1479997634888,122.762110710144,57.8887295662096,10.0,Trees,0.728501189732326,-0.659819994545289,Landsat 7,-42.5784190715423,90.0,1
371,2012-01-01,汶川县威州镇麦地村1组祖祖坟,聚集区,滑坡,地震-降雨,滑坡,,103.622222222222,31.4697222222222,1502.0,201.0,42000m3,小型,小型,350.0,10.0,39.0,否,,2.38517355918884,2.38517355918884,5.50436854362488,2.11684303158464,10.0,Trees,0.782105867438467,-0.731535279352979,Landsat 7,-52.3676286073002,90.0,1
374,2014-05-01,汶川县威州镇麦地村2组流水水,公路,滑坡,地震-降雨,滑坡,,103.623888888889,31.4830555555556,1460.0,43.0,180000m3,中型,小型,200.0,0.0,0.0,是,交通运输,11.9955863952637,38.7192325592041,69.9742648601532,25.3235757598125,30.0,Grassland,0.558717062353248,-0.490415273197845,Landsat 7,-43.685069008806,180.0,1
377,2008-07-01,汶川县威州镇月里村2组作科地,分散农户,滑坡,降雨,滑坡,,103.626666666667,31.4727777777778,1619.0,48.0,208000m3,中型,小型,150.0,5.0,16.0,否,,25.8491020202637,35.107515335083,114.172542572021,35.1626120613243,10.0,Trees,0.732506279796996,-0.657723058811988,Landsat 7,3.592220828080144,180.0,1
378,2008-06-01,汶川县威州镇月里村1组苹果园,聚集区,滑坡,降雨,滑坡,,103.628333333333,31.4677777777778,1672.0,278.0,20000m3,小型,小型,330.0,11.0,42.0,否,,0.0,15.4939270019531,91.7325768470764,15.9302435787579,30.0,Grassland,0.522969882473244,-0.544569718798394,Landsat 7,30.326223337491456,324.5,1
380,2008-06-01,汶川县威州镇白水村3组青土坪,聚集区,滑坡,地震-降雨,滑坡,,103.618333333333,31.4588888888889,1897.0,65.0,3600000m3,大型,中型,2550.0,85.0,304.0,否,,0.0,15.4939270019531,91.7325768470764,15.9302435787579,10.0,Trees,0.8111692697848,-0.762129167300069,Landsat 7,-28.834378920983,254.56,1
393,2014-05-01,汶川县威州镇月里村2组月里,分散农户-公路,滑坡,地震-降雨,滑坡,,103.625277777778,31.4830555555556,1513.0,335.0,150000m3,中型,小型,120.0,3.0,14.0,否,,11.9955863952637,38.7192325592041,69.9742648601532,25.3235757598125,30.0,Grassland,0.459042003476923,-0.470053596797107,Landsat 7,-40.3074027603754,270.0,1
401,2008-05-12,汶川县威州镇布瓦村1组水文站后山,聚集区,滑坡,地震-降雨,滑坡,,103.580833333333,31.49,1350.0,340.0,170000m3,中型,中型,1260.0,42.0,222.0,否,,0.0,8.54320240020752,64.5814552307129,10.918849485124,30.0,Grassland,0.385316176782158,-0.397584695949556,Landsat 7,-79.269761606045,90.0,1
402,2008-05-12,汶川县威州镇布瓦村2组垃圾场上方,聚集区,滑坡,地震-降雨,滑坡,,103.577222222222,31.4927777777778,1341.0,340.0,132000m3,中型,中型,2040.0,68.0,405.0,否,,0.0,8.54320240020752,64.5814552307129,10.918849485124,80.0,Permanent water bodies,0.26957536119637,-0.248434473550595,Landsat 7,-100.116687578438,0.0,1
404,2007-08-14,汶川县威州镇万村5组大坡头,分散农户,滑坡,地震-降雨,滑坡,,103.576388888889,31.4625,1663.0,318.0,90000m3,小型,小型,300.0,8.0,27.0,否,,0.0,30.2807550430298,120.059467792511,22.9921764978994,30.0,Grassland,0.641635043782709,-0.605343056682051,Landsat 7,11.499372647403789,576.28,1
405,2007-08-17,汶川县威州镇万村1、2组,分散农户,滑坡,地震-降雨,滑坡,,103.573888888889,31.4488888888889,1933.0,318.0,180000m3,中型,小型,280.0,8.0,24.0,否,,0.0,12.2887668609619,83.4849901199341,14.7292768712583,10.0,Trees,0.884082463063078,-0.77878292658369,Landsat 7,25.250941028828493,636.4,1
408,2008-05-12,汶川县威州镇万村1组岩岭子,公路,滑坡,地震-降雨,滑坡,,103.561666666667,31.45,1594.0,188.0,230000m3,中型,小型,50.0,0.0,0.0,是,交通运输,0.0,8.94013977050781,67.2538619041443,11.4970051943645,10.0,Trees,0.460918219157334,-0.463931147775159,Landsat 7,3.61229611038948,655.21,1
411,2008-05-12,汶川县威州镇万村万村,聚集区,滑坡,地震-降雨,滑坡,,103.581944444444,31.4538888888889,1924.0,225.0,800000m3,中型,中型,1650.0,55.0,201.0,否,,0.0,8.54320240020752,64.5814552307129,10.918849485124,30.0,Grassland,0.600342220860149,-0.585863059460691,Landsat 7,-5.48808030115878,402.49,1
419,2008-05-12,汶川县威州镇双河村3组原监狱,分散农户,滑坡,地震,滑坡,,103.596388888889,31.4797222222222,1339.0,269.0,12000m3,小型,小型,120.0,4.0,20.0,否,,0.0,8.54320240020752,64.5814552307129,10.918849485124,80.0,Permanent water bodies,0.205026225116812,-0.212114979174166,Landsat 7,-69.468005018843,0.0,1
420,2012-07-01,汶川县威州镇双河村3组姜射坝公路,公路,滑坡,降雨,滑坡,,103.595277777778,31.4791666666667,1335.0,55.0,50000m3,小型,小型,20.0,0.0,0.0,是,交通运输,0.0,36.1701278686523,111.16584777832,23.7323890498511,10.0,Trees,0.224803211080801,-0.240850509468199,Landsat 7,-76.6737766625069,0.0,1
422,2012-07-01,汶川县威州镇双河村3组三关庙,公路,滑坡,降雨,滑坡,,103.593888888889,31.4783333333333,1355.0,291.0,5000m3,小型,小型,20.0,0.0,0.0,是,交通运输,0.0,36.1701278686523,111.16584777832,23.7323890498511,10.0,Trees,0.526032342431945,-0.513156549053985,Landsat 7,-66.718946047702,90.0,1
423,2013-07-10,汶川县威州镇双河村3组青土山,公路,滑坡,降雨,滑坡,,103.588888888889,31.4783333333333,1347.0,303.0,36000m3,小型,小型,10.0,0.0,0.0,是,交通运输,20.863561630249,69.4266033172607,211.852945327759,48.7213303441751,50.0,Built-up,0.420900662841534,-0.412940464415937,Landsat 7,-45.6537013801973,201.25,1
427,2013-07-01,汶川县威州镇双河村1组毛沟湾,公路,滑坡,降雨,滑坡,,103.583055555556,31.49,1446.0,263.0,18000m3,小型,小型,5.0,0.0,0.0,是,交通运输,16.1093826293945,34.5857830047607,183.37627029419,43.8496777835658,30.0,Grassland,0.549356284433787,-0.53836669619132,Landsat 7,1.0526976160394952,254.56,1
428,2008-05-12,汶川县威州镇双河村1组黄岩组,分散农户-公路,滑坡,降雨,滑坡,,103.581944444444,31.4888888888889,1347.0,356.0,140000m3,中型,小型,150.0,5.0,20.0,否,,0.0,8.54320240020752,64.5814552307129,10.918849485124,30.0,Grassland,0.314107137220241,-0.344929409104126,Landsat 7,-67.8845671267486,127.28,1
434,2008-05-12,汶川县威州镇双河村2组壹股水,分散农户,滑坡,地震-降雨,滑坡,,103.578888888889,31.4927777777778,1377.0,119.0,85000m3,小型,小型,85.0,5.0,18.0,否,,0.0,8.54320240020752,64.5814552307129,10.918849485124,30.0,Grassland,0.363878588870415,-0.350648634869894,Landsat 7,-69.2245922208469,90.0,1
445,2015-07-01,汶川县威州镇茨里村2组砂槽头,分散农户,滑坡,降雨,滑坡,,103.5875,31.4683333333333,1568.0,109.0,320000m3,中型,小型,210.0,7.0,21.0,否,,28.043586730957,76.602912902832,162.822962760925,58.1940227264002,10.0,Trees,0.616422481582651,-0.590686366655388,Landsat 7,-56.6072772898608,90.0,1
446,2013-07-01,汶川县威州镇茨里村1组大坎下,聚集区,滑坡,降雨,滑坡,,103.588888888889,31.4638888888889,1688.0,180.0,220000m3,中型,小型,480.0,16.0,62.0,否,,16.1093826293945,34.5857830047607,183.37627029419,43.8496777835658,10.0,Trees,0.665557494761126,-0.61898891706584,Landsat 7,-57.2559598494638,180.0,1
448,2013-08-01,汶川县威州镇茨里村1组接待中心后山,聚集区,滑坡,降雨,滑坡,,103.5925,31.4591666666667,1801.0,180.0,160000m3,中型,中型,600.0,16.0,95.0,否,,0.0,35.9796986579895,182.62707567215,31.1329240560565,10.0,Trees,0.816532048753141,-0.725868497366396,Landsat 7,-71.774153074054,0.0,1
449,2013-07-20,汶川县威州镇茨里村1组黑石头,公路,滑坡,降雨,滑坡,,103.590277777778,31.4652777777778,1649.0,161.0,12000m3,小型,小型,5.0,0.0,0.0,是,交通运输,0.0,51.9355144500732,218.198098659515,40.3178069865778,10.0,Trees,0.815006311944347,-0.748494394814637,Landsat 7,-60.4905897114442,90.0,1
459,2008-05-12,汶川县威州镇双河村3组姜维城前缘,县城,滑坡,地震-降雨,滑坡,,103.580833333333,31.4783333333333,1338.0,163.0,120000m3,中型,中型,900.0,0.0,300.0,否,,0.0,8.54320240020752,64.5814552307129,10.918849485124,10.0,Trees,0.498307758628597,-0.440745085242056,Landsat 7,-22.9799247177131,180.0,1
474,2013-07-10,汶川县威州镇新桥村3组木兰后山,河道,滑坡,地震-降雨,滑坡,,103.5375,31.4388888888889,1436.0,129.0,205000m3,中型,中型,500.0,0.0,0.0,是,水利（务）,26.6362628936768,77.738317489624,217.062251091003,54.4762881429672,30.0,Grassland,,,Landsat 7,-20.2409033877238,90.0,1
477,2008-05-12,汶川县威州镇新桥村3组都汶高速1#,公路,滑坡,地震-降雨,滑坡,,103.541388888889,31.4463888888889,1433.0,317.0,30000m3,小型,小型,200.0,0.0,0.0,是,交通运输,0.0,8.76680183410645,67.3408975601196,11.2803172231119,10.0,Trees,0.572736747029806,-0.547428290175275,Landsat 7,4.675031367609108,127.28,1
481,2007-03-10,汶川县威州镇牛脑寨村1组十八台子,公路,滑坡,地震-降雨,滑坡,,103.595,31.4655555555556,1919.0,357.0,68000m3,小型,小型,30.0,0.0,0.0,是,交通运输,0.0,0.0,9.75741127133369,0.462530880054816,30.0,Grassland,0.569950261799168,-0.557226544159606,Landsat 7,35.64617314928205,547.45,1
482,2006-08-03,汶川县威州镇牛脑寨村1组烧鸡湾,公路,滑坡,地震-降雨,滑坡,,103.593888888889,31.4675,1856.0,20.0,16200m3,小型,小型,15.0,0.0,0.0,是,交通运输,0.0,20.4242534637451,129.95751285553,23.7109341895669,30.0,Grassland,0.460766961651917,-0.457876056983039,Landsat 7,42.943538268476914,547.45,1
483,2008-07-01,汶川县威州镇牛脑寨村1组进山边,公路,滑坡,地震-降雨,滑坡,,103.600555555556,31.4669444444444,2065.0,80.0,72000m3,小型,小型,30.0,0.0,0.0,是,交通运输,25.8491020202637,35.107515335083,114.172542572021,35.1626120613243,10.0,Trees,0.727502115201749,-0.697718910963944,Landsat 7,50.11166875781123,1006.23,1
485,2012-07-20,汶川县威州镇茅岭村2组叉叉路,分散农户,滑坡,降雨,滑坡,,103.537777777778,31.4641666666667,2121.0,355.0,45000m3,小型,小型,90.0,3.0,6.0,否,,35.4994277954102,59.0628356933594,161.569606304169,43.9922990688607,30.0,Grassland,0.756294701912513,-0.708572581480694,Landsat 7,17.898368883281364,768.96,1
487,2008-05-12,汶川县威州镇茅岭村2组羊岭,公路,滑坡,地震-降雨,滑坡,,103.553055555556,31.4594444444444,1736.0,203.0,151800m3,中型,小型,50.0,0.0,0.0,是,交通运输,0.0,8.54320240020752,64.5814552307129,10.918849485124,30.0,Grassland,0.605566748367061,-0.594090816430537,Landsat 7,76.2170639899357,649.0,1
490,2008-05-12,汶川县威州镇秉里村2组秉里,聚集区,滑坡,地震-降雨,滑坡,,103.601666666667,31.4713888888889,1765.0,138.0,1650000m3,大型,大型,5000.0,126.0,446.0,否,,0.0,11.8854026794434,63.6229877471924,12.799265824717,10.0,Trees,0.776225573061059,-0.69250990625302,Landsat 7,-34.7728983689105,547.45,1
495,2014-07-16,汶川县威州镇增坡村1组三家房,分散农户,滑坡,地震-降雨,滑坡,,103.562777777778,31.4975,1819.0,20.0,49000m3,小型,小型,90.0,3.0,12.0,否,,0.0,89.521369934082,170.898251533508,44.7556077268843,30.0,Grassland,,,Landsat 7,-16.4742785445712,201.25,1
497,2015-04-05,汶川县威州镇增坡村2组庙子坪,公路,滑坡,地震-降雨,滑坡,,103.556666666667,31.5038888888889,1945.0,47.0,10000m3,小型,小型,5.0,0.0,0.0,是,交通运输,11.2178428173065,29.6208789348602,45.7289990782738,20.9032003145293,30.0,Grassland,0.591089581769803,-0.581593760596812,Landsat 7,40.83939774150099,636.4,1
499,2011-07-16,汶川县威州镇增坡村4组豆芽口,聚集区,滑坡,地震-降雨,滑坡,,103.54,31.5066666666667,2120.0,35.0,72000m3,小型,小型,150.0,5.0,22.0,否,,4.99497604370117,34.0886120796204,233.346109390259,36.3178777457738,10.0,Trees,0.676144717350658,-0.679321845469705,Landsat 7,-51.1104140527322,371.08,1
500,2011-07-18,汶川县威州镇增坡村4组尚明友房前,分散农户,滑坡,地震-降雨,滑坡,,103.540277777778,31.5080555555556,2149.0,66.0,6000m3,小型,小型,35.0,1.0,6.0,否,,0.0,15.6984963417053,222.324476242065,26.2367235422871,30.0,Grassland,0.658793155072963,-0.650076991379213,Landsat 7,28.318695106615905,450.0,1
504,2008-05-12,汶川县威州镇禹碑岭村3组坝刀,公路,滑坡,地震-降雨,滑坡,,103.56,31.4738888888889,1937.0,22.0,180000m3,中型,小型,100.0,0.0,0.0,是,交通运输,0.0,8.54320240020752,64.5814552307129,10.918849485124,10.0,Trees,,,Landsat 7,5.575909661202786,371.08,1
510,2008-05-12,汶川县威州镇铁邑村3组普登,分散农户,滑坡,地震-降雨,滑坡,,103.550555555556,31.5113888888889,1741.0,238.0,162000m3,中型,小型,120.0,4.0,16.0,否,,0.0,9.57162857055664,63.5381774902344,11.651985477425,30.0,Grassland,,,Landsat 7,4.079046424063108,450.0,1
512,2002-07-16,汶川县威州镇铁邑村2组大岩洞,分散农户,滑坡,地震-降雨,滑坡,,103.555,31.5041666666667,1982.0,135.0,378000m3,中型,小型,60.0,2.0,3.0,否,,0.0,0.0,85.0041637420654,4.98166214112248,10.0,Trees,,,Landsat 7,15.353826850657242,720.0,1
517,2008-05-12,汶川县威州镇铁邑村2组沟沟头,公路,滑坡,地震-降雨,滑坡,,103.562777777778,31.5041666666667,1634.0,229.0,147000m3,中型,小型,10.0,0.0,0.0,是,交通运输,0.0,9.57162857055664,63.5381774902344,11.651985477425,10.0,Trees,,,Landsat 7,-13.3048933500867,381.84,1
518,2008-05-12,汶川县威州镇铁邑村3组大坎上,其它,滑坡,地震-降雨,滑坡,,103.559166666667,31.5038888888889,1765.0,209.0,153000m3,中型,小型,200.0,0.0,0.0,是,经济和信息化,0.0,9.57162857055664,63.5381774902344,11.651985477425,30.0,Grassland,,,Landsat 7,-27.7691342534769,547.45,1
519,2008-05-12,汶川县威州镇铁邑村1组烟登,分散农户,滑坡,地震-降雨,滑坡,,103.564166666667,31.5088888888889,1422.0,222.0,152000m3,中型,小型,240.0,8.0,34.0,否,,0.0,9.57162857055664,63.5381774902344,11.651985477425,30.0,Grassland,,,Landsat 7,-37.189460476809,127.28,1
523,2008-05-12,汶川县威州镇七盘沟村4组牛圈房后山,聚集区,滑坡,地震-降雨,滑坡,,103.5625,31.4375,1729.0,255.0,1608000m3,大型,中型,600.0,10.0,42.0,否,,0.0,8.94013977050781,67.2538619041443,11.4970051943645,10.0,Trees,0.724787583126427,-0.685915338366038,Landsat 7,-15.9824341280059,540.0,1
530,2008-05-12,汶川县威州镇七盘沟村2组青砂坪后山,分散农户,滑坡,地震-降雨,滑坡,,103.543888888889,31.4375,1312.0,319.0,48000m3,小型,小型,35.0,1.0,2.0,否,,0.0,8.76680183410645,67.3408975601196,11.2803172231119,10.0,Trees,,,Landsat 7,-55.0276035131944,324.5,1
537,2008-05-12,汶川县威州镇布瓦村4组下铜厂,河道,滑坡,地震-降雨,滑坡,,103.606666666667,31.4975,1658.0,313.0,71000m3,小型,小型,20.0,0.0,0.0,是,水利（务）,0.0,11.8854026794434,63.6229877471924,12.799265824717,30.0,Grassland,0.449500345301829,-0.476535489883655,Landsat 7,-9.23212045171862,371.08,1
547,2017-07-03,汶川县威州镇增坡村2组岩洞上,分散农户,滑坡,地震-降雨,滑坡,,103.558888888889,31.4988888888889,1852.0,291.0,5400m3,小型,小型,105.0,3.0,16.0,否,,,,,,10.0,Trees,0.745006170386329,-0.703269668541562,Landsat 7,-45.5319949812101,0.0,1
552,2017-07-09,汶川县威州镇茨里村2组月坪,分散农户,滑坡,地震-降雨,滑坡,,103.586388888889,31.4713888888889,1520.0,190.0,110000m3,中型,小型,450.0,15.0,53.0,否,,,,,,10.0,Trees,0.652532546249934,-0.594076898633619,Landsat 7,-34.9799247177165,180.0,1
555,2017-06-29,汶川县威州镇月里村4组毛尔坪松树林,分散农户,滑坡,地震-降雨,滑坡,,103.631388888889,31.4794444444444,1842.0,45.0,540000m3,中型,小型,120.0,2.0,15.0,否,,,,,,40.0,Cropland,0.601439217115517,-0.562261239248674,Landsat 7,-7.43287327481152,810.0,1
556,2017-06-30,汶川县威州镇月里村2组沟边地,分散农户,滑坡,地震-降雨,滑坡,,103.628333333333,31.4708333333333,1685.0,50.0,26300m3,小型,小型,175.0,5.0,28.0,否,,,,,,30.0,Grassland,0.37989709304231,-0.402446173523769,Landsat 7,9.190715181907308,0.0,1
558,2017-07-01,汶川县威州镇白水村1组后山,聚集区,滑坡,地震-降雨,滑坡,,103.614166666667,31.4641666666667,1973.0,27.0,150000m3,中型,中型,780.0,26.0,75.0,否,,,,,,30.0,Grassland,0.615036551986973,-0.552212365806228,Landsat 7,43.51944792970812,725.6,1
561,2017-07-08,汶川县威州镇索桥村3组房后头,聚集区,滑坡,地震-降雨,滑坡,,103.656666666667,31.4913888888889,1927.0,113.0,900000m3,中型,中型,570.0,19.0,62.0,否,,,,,,10.0,Trees,0.747382728434815,-0.670521080679717,Landsat 7,-24.702634880834,402.49,1
562,2017-07-08,汶川县威州镇索桥村1组勤周地,其它,滑坡,地震-降雨,滑坡,,103.632777777778,31.4925,1404.0,162.0,216000m3,中型,小型,0.0,0.0,0.0,否,,,,,,30.0,Grassland,,,Landsat 7,-46.2107904642632,201.25,1
566,2018-07-15,汶川县威州镇七盘沟村警犬训练基地前缘,分散农户,滑坡,降雨-人为因素,滑坡,,103.549166666667,31.4530555555556,1341.0,294.0,20000m3,小型,小型,3.0,2.0,10.0,否,,,,,,10.0,Trees,0.435891868418195,-0.401306727882748,Landsat 7,-23.6286072773086,180.0,1
567,2018-07-15,汶川县威州镇茅岭村1、2组养猪场,公路,滑坡,降雨-人为因素,滑坡,,103.550555555556,31.4625,1948.0,250.0,600m3,小型,小型,100.0,0.0,0.0,是,交通运输,,,,,30.0,Grassland,0.389371763116415,-0.3950733124569,Landsat 7,45.29109159344762,685.42,1
568,2018-07-15,汶川县威州镇布瓦村1、2组,分散农户,滑坡,降雨,滑坡,,103.594166666667,31.4925,1913.0,60.0,4000m3,小型,小型,90.0,3.0,25.0,否,,,,,,30.0,Grassland,0.499317620622457,-0.481013769406335,Landsat 7,-17.8143036386745,1272.79,1
569,2018-07-15,汶川县威州镇白水村2组佘余红房外,分散农户,滑坡,降雨-人为因素,滑坡,,103.616666666667,31.4688888888889,1744.0,190.0,500m3,小型,小型,100.0,2.0,10.0,否,,,,,,30.0,Grassland,,,Landsat 7,12.233375156811007,450.0,1
573,2018-07-15,汶川县威州镇增坡村塔子梁下方,公路,滑坡,降雨,滑坡,,103.575277777778,31.4963888888889,1350.0,280.0,400m3,小型,小型,60.0,0.0,0.0,是,交通运输,,,,,30.0,Grassland,0.400525496439163,-0.412455065997925,Landsat 7,-141.521957340044,0.0,1
574,2018-07-15,汶川县威州镇索桥村1组朱文跃门前,分散农户-公路,滑坡,降雨-人为因素,滑坡,,103.6475,31.4938888888889,1612.0,200.0,8000m3,小型,小型,200.0,6.0,23.0,否,,,,,,50.0,Built-up,0.331669972936308,-0.389172160234392,Landsat 7,2.6260978669761244,127.28,1
575,2011-08-20,汶川县威州镇布瓦村2组洞洞田,分散农户,滑坡,地震-降雨,滑坡,,103.596388888889,31.4938888888889,2020.0,45.0,7200m3,小型,小型,80.0,2.0,8.0,否,,25.8192300796509,58.1197772026062,165.995675563812,40.4051657622595,30.0,Grassland,0.283682648817179,-0.338163840514789,Landsat 7,6.534504391440578,1370.84,1
576,2014-08-30,汶川县威州镇茅岭村2组鼓肚子地,分散农户,滑坡,地震-降雨,滑坡,,103.550555555556,31.4625,1948.0,15.0,20000m3,小型,小型,160.0,3.0,9.0,否,,12.6082439422607,25.9957275390625,157.99493598938,27.5202184858108,30.0,Grassland,0.389371763116415,-0.3950733124569,Landsat 7,45.29109159344762,685.42,1
579,2011-05-28,汶川县威州镇增坡村3组塞坝头,聚集区,滑坡,地震-降雨,滑坡,,103.546388888889,31.5075,1987.0,175.0,72000m3,小型,小型,380.0,16.0,78.0,否,,0.0,0.0,95.3807945251465,12.554031097404,30.0,Grassland,,,Landsat 7,-1.72647427857373,180.0,1
580,2012-11-30,汶川县威州镇增坡村3组樱樱桃,分散农户,滑坡,地震-降雨,滑坡,,103.5475,31.5055555555556,2096.0,170.0,80000m3,小型,小型,230.0,7.0,32.0,否,,1.64993822574616,5.42648804187775,12.5306233167648,3.55169986661166,10.0,Trees,,,Landsat 7,15.927227101599328,180.0,1
581,2019-04-10,汶川县威州镇茅岭村2组瓦切达,分散农户,滑坡,降雨-人为因素,滑坡,,103.550555555556,31.4641666666667,2035.0,112.0,7000m3,小型,小型,200.0,5.0,15.0,否,,,,,,30.0,Grassland,0.317935553937479,-0.372917309472385,Landsat 7,13.466750313648843,853.81,1
582,2019-06-25,汶川县威州镇月里村1组通组路路口,公路,滑坡,地震-降雨,滑坡,,103.6275,31.4769444444444,1654.0,288.0,2880000m3,大型,小型,50.0,0.0,0.0,是,交通运输,,,,,10.0,Trees,0.711544932228677,-0.633190365416303,Landsat 7,11.80928481804176,450.0,1
596,2013-07-10,汶川县绵虒镇白土坎村1组小埃米,聚集区,滑坡,地震-降雨,滑坡,,103.495833333333,31.3841666666667,1580.0,282.0,288000m3,中型,中型,2500.0,35.0,124.0,否,,25.7764415740967,80.5743389129639,227.851680755615,55.0733648439188,30.0,Grassland,0.546906334067009,-0.489988693112221,Landsat 7,-24.1355081556066,324.5,1
597,2013-07-10,汶川县绵虒镇白土坎村2组大埃米,聚集区,滑坡,地震-降雨,滑坡,,103.496666666667,31.3802777777778,1691.0,89.0,120000m3,中型,中型,850.0,17.0,53.0,否,,25.7764415740967,80.5743389129639,227.851680755615,55.0733648439188,30.0,Grassland,0.486940242171694,-0.484597933326801,Landsat 7,15.946047678768082,381.84,1
600,2013-07-10,汶川县绵虒镇白土坎村3组白土坎,聚集区,滑坡,地震-降雨,滑坡,,103.496944444444,31.3758333333333,1775.0,74.0,101000m3,中型,中型,600.0,20.0,65.0,否,,25.7764415740967,80.5743389129639,227.851680755615,55.0733648439188,10.0,Trees,0.418103742852587,-0.437556289402582,Landsat 7,79.85947302381396,702.92,1
617,2008-05-01,汶川县绵虒镇板子沟村4组枯岭,公路,滑坡,地震-降雨,滑坡,,103.525833333333,31.4258333333333,1879.0,92.0,20000m3,小型,小型,20.0,0.0,0.0,是,交通运输,0.0,19.2764282226563,60.504328250885,12.4801190143812,30.0,Grassland,,,Landsat 7,24.2772898368612,702.92,1
627,2013-07-01,汶川县绵虒镇小毛坪村2组小寨子,分散农户,滑坡,地震-降雨,滑坡,,103.5075,31.4063888888889,1856.0,193.0,60000m3,小型,小型,30.0,1.0,4.0,否,,15.3606739044189,15.3606739044189,186.045651435852,39.4799912325656,30.0,Grassland,,,Landsat 7,-28.3839397741817,90.0,1
628,2008-05-01,汶川县绵虒镇小毛坪村1组小毛坪,聚集区,滑坡,地震-降雨,滑坡,,103.512777777778,31.4113888888889,2026.0,91.0,100000m3,中型,小型,240.0,8.0,31.0,否,,0.0,19.2764282226563,60.504328250885,12.4801190143812,10.0,Trees,,,Landsat 7,20.5959849435053,636.4,1
638,2008-05-12,汶川县绵虒镇半坡村3组羊洞槽,聚集区,滑坡,地震-降雨,滑坡,,103.526666666667,31.3852777777778,1868.0,82.0,13500m3,小型,小型,120.0,4.0,15.0,否,,0.0,8.81735420227051,63.5219688415527,11.1078145033797,10.0,Trees,0.804345669213216,-0.705277735702075,Landsat 7,-4.74654956088011,1026.16,1
639,2008-05-12,汶川县绵虒镇克约村3组大流沙,分散农户,滑坡,地震-降雨,滑坡,,103.461666666667,31.3272222222222,1870.0,142.0,27000m3,小型,小型,95.0,5.0,19.0,否,,0.0,8.77766227722168,66.5701339244843,11.2890088918053,10.0,Trees,0.47340965077525,-0.472496882416831,Landsat 7,22.24968632368541,324.5,1
640,2008-05-12,汶川县绵虒镇克约村3组柏树林,分散农户,滑坡,地震-降雨,滑坡,,103.461666666667,31.3272222222222,1870.0,340.0,27000m3,小型,小型,95.0,5.0,19.0,否,,0.0,8.77766227722168,66.5701339244843,11.2890088918053,10.0,Trees,0.47340965077525,-0.472496882416831,Landsat 7,22.24968632368541,324.5,1
641,2008-05-12,汶川县绵虒镇克约村2组三倒拐,分散农户,滑坡,地震-降雨,滑坡,,103.461666666667,31.3272222222222,1870.0,130.0,27000m3,小型,小型,95.0,5.0,19.0,否,,0.0,8.77766227722168,66.5701339244843,11.2890088918053,10.0,Trees,0.47340965077525,-0.472496882416831,Landsat 7,22.24968632368541,324.5,1
642,2013-07-10,汶川县绵虒镇克约村3组上祖场坝,公路,滑坡,地震-降雨,滑坡,,103.459444444444,31.3227777777778,2017.0,118.0,36000m3,小型,小型,10.0,0.0,0.0,是,交通运输,31.4765024185181,87.8905878067017,227.262755393982,63.1180606231452,10.0,Trees,0.656965486955307,-0.628361810228142,Landsat 7,87.93851944790026,576.28,1
643,2013-07-10,汶川县绵虒镇克约村3组落汤,聚集区,滑坡,地震-降雨,滑坡,,103.463055555556,31.32,1857.0,95.0,3200m3,小型,小型,350.0,9.0,70.0,否,,31.4765024185181,87.8905878067017,227.262755393982,63.1180606231452,10.0,Trees,0.676012370805479,-0.634980075177345,Landsat 7,67.94228356333315,576.28,1
644,2013-07-10,汶川县绵虒镇克约村3组李桂平二升二,公路,滑坡,地震-降雨,滑坡,,103.460555555556,31.3283333333333,1920.0,300.0,72000m3,小型,小型,60.0,0.0,0.0,是,交通运输,31.4765024185181,87.8905878067017,227.262755393982,63.1180606231452,10.0,Trees,0.672997899735184,-0.603600318018366,Landsat 7,10.708908406495992,324.5,1
645,2013-07-10,汶川县绵虒镇克约村4组埃都,公路,滑坡,地震-降雨,滑坡,,103.471388888889,31.3375,1751.0,131.0,96000m3,小型,小型,20.0,0.0,0.0,是,交通运输,31.4765024185181,87.8905878067017,227.262755393982,63.1180606231452,30.0,Grassland,,,Landsat 7,31.81430363862296,849.06,1
656,2008-05-12,汶川县绵虒镇沙排村2组各角地,分散农户,滑坡,地震-降雨,滑坡,,103.364166666667,31.3183333333333,2152.0,135.0,230000m3,中型,小型,5.0,1.0,3.0,否,,0.0,0.0,43.8005681037903,2.08490073331357,30.0,Grassland,,,Landsat 7,53.70514429106152,450.0,1
658,2008-05-12,汶川县绵虒镇沙排村2组火烧坡,分散农户,滑坡,地震-降雨,滑坡,,103.353055555556,31.3094444444444,2261.0,145.0,41000m3,小型,小型,10.0,2.0,9.0,否,,0.0,0.0,43.8005681037903,2.08490073331357,10.0,Trees,0.666162358433475,-0.606577192397466,Landsat 7,97.96988707650372,402.49,1
659,2008-05-12,汶川县绵虒镇沙排村1组二台子,聚集区,滑坡,地震-降雨,滑坡,,103.358055555556,31.31,1914.0,121.0,320000m3,中型,中型,810.0,27.0,108.0,否,,0.0,0.0,43.8005681037903,2.08490073331357,10.0,Trees,,,Landsat 7,-54.2710163111976,127.28,1
660,2008-05-12,汶川县绵虒镇沙排村1组苏大房山体,分散农户,滑坡,地震-降雨,滑坡,,103.358055555556,31.3116666666667,1980.0,60.0,60000m3,小型,小型,5.0,1.0,4.0,否,,0.0,0.0,43.8005681037903,2.08490073331357,10.0,Trees,0.585222910569724,-0.520875722901671,Landsat 7,-48.3550815558667,284.6,1
661,2008-05-12,汶川县绵虒镇沙排村2组刘素花房前,分散农户,滑坡,地震-降雨,滑坡,,103.3625,31.3183333333333,2177.0,86.0,30000m3,小型,小型,10.0,2.0,7.0,否,,0.0,0.0,43.8005681037903,2.08490073331357,30.0,Grassland,,,Landsat 7,12.49937264739674,576.28,1
668,2013-07-01,汶川县绵虒镇金波村1组庙子林盘,分散农户,滑坡,地震-降雨,滑坡,,103.3975,31.2119444444444,1848.0,283.0,60000m3,小型,小型,120.0,5.0,20.0,否,,15.174861907959,34.4870128631592,202.765852928162,43.5702057293003,10.0,Trees,0.760768969644995,-0.661810333198435,Landsat 7,68.8419071517942,270.0,1
670,2013-07-01,汶川县绵虒镇金波村3组牛家湾,聚集区,滑坡,地震-降雨,滑坡,,103.388055555556,31.2180555555556,2137.0,117.0,200000m3,中型,中型,1500.0,50.0,205.0,否,,15.174861907959,34.4870128631592,202.765852928162,43.5702057293003,30.0,Grassland,0.81708955624959,-0.712051222901768,Landsat 7,3.688833124184839,774.21,1
675,2013-07-01,汶川县绵虒镇金波村5组磨子湾,公路,滑坡,地震-降雨,滑坡,,103.406944444444,31.2233333333333,1608.0,110.0,50000m3,小型,小型,10.0,0.0,0.0,是,交通运输,14.3979053497314,32.8797225952148,199.501382827759,42.5083613546501,30.0,Grassland,,,Landsat 7,-84.1530740276316,90.0,1
682,2008-05-12,汶川县绵虒镇沙排村2组沈家包包,公路,滑坡,地震-降雨,滑坡,,103.3575,31.3127777777778,2060.0,58.0,13000m3,小型,小型,10.0,0.0,0.0,是,交通运输,0.0,0.0,43.8005681037903,2.08490073331357,30.0,Grassland,0.566701229447489,-0.539238443123358,Landsat 7,-25.9247176913754,402.49,1
683,2013-07-10,汶川县绵虒镇沙排村1组屈九全屋后,分散农户,滑坡,地震-降雨,滑坡,,103.324166666667,31.3016666666667,2027.0,37.0,8000m3,小型,小型,5.0,1.0,4.0,否,,23.0032467842102,73.8073582649231,222.623287200928,52.282320387597,30.0,Grassland,0.828516434184042,-0.726749792186201,Landsat 7,-77.5420326223666,90.0,1
684,2013-07-10,汶川县绵虒镇沙排村2组许进全房前,分散农户,滑坡,地震-降雨,滑坡,,103.325833333333,31.3052777777778,2005.0,78.0,18000m3,小型,小型,10.0,2.0,7.0,否,,23.0032467842102,73.8073582649231,222.623287200928,52.282320387597,30.0,Grassland,0.358929139819172,-0.373486014381233,Landsat 7,-71.3726474278855,90.0,1
685,2008-05-12,汶川县绵虒镇克约村1组大坪,分散农户,滑坡,地震-降雨,滑坡,,103.470277777778,31.3252777777778,1250.0,146.0,240000m3,中型,小型,30.0,1.0,5.0,否,,0.0,8.77766227722168,66.5701339244843,11.2890088918053,30.0,Grassland,0.524740614796066,-0.49726789779914,Landsat 7,-60.3149309912362,90.0,1
703,2008-05-12,汶川县绵虒镇两河村2组丹栽,其它,滑坡,地震-降雨,滑坡,,103.431944444444,31.2566666666667,1385.0,310.0,30000m3,小型,小型,0.0,0.0,0.0,否,,0.0,14.6458654403687,73.148136138916,14.8027398831364,10.0,Trees,0.691504138676111,-0.620274045082828,Landsat 7,-97.7728983689046,90.0,1
705,2008-05-12,汶川县绵虒镇两河村2组周家大地后山,聚集区,滑坡,地震-降雨,滑坡,,103.430277777778,31.2577777777778,1422.0,127.0,72000m3,小型,小型,270.0,9.0,37.0,否,,0.0,14.6458654403687,73.148136138916,14.8027398831364,10.0,Trees,0.67877772795611,-0.626513336527711,Landsat 7,-66.5671267252421,127.28,1
712,2008-05-12,汶川县绵虒镇两河村1组龚家河坝,其它,滑坡,地震-降雨,滑坡,,103.44,31.2688888888889,1339.0,168.0,240000m3,中型,小型,0.0,0.0,0.0,否,,0.0,14.6458654403687,73.148136138916,14.8027398831364,60.0,Bare / Sparse vegetation,0.723174345783941,-0.645978822555447,Landsat 7,-100.485570890862,0.0,1
714,2008-05-12,汶川县绵虒镇两河村2组姜家地,分散农户,滑坡,地震-降雨,滑坡,,103.435,31.2638888888889,1372.0,233.0,24000m3,小型,小型,5.0,1.0,4.0,否,,0.0,14.6458654403687,73.148136138916,14.8027398831364,10.0,Trees,,,Landsat 7,-86.2860727729214,201.25,1
715,2008-05-12,汶川县绵虒镇两河村2组小电站,公路,滑坡,地震-降雨,滑坡,,103.44,31.2594444444444,1362.0,36.0,18000m3,小型,小型,20.0,0.0,0.0,是,交通运输,0.0,14.6458654403687,73.148136138916,14.8027398831364,10.0,Trees,0.756765436063387,-0.68686401480111,Landsat 7,-102.342534504413,90.0,1
726,2008-05-12,汶川县绵虒镇两河村1组上河坝,分散农户,滑坡,地震-降雨,滑坡,,103.4425,31.2794444444444,1411.0,38.0,202000m3,中型,小型,120.0,4.0,15.0,否,,0.0,14.6458654403687,73.148136138916,14.8027398831364,10.0,Trees,,,Landsat 7,-83.183186951087,90.0,1
730,2013-07-01,汶川县绵虒镇码头村3组王家后山,公路,滑坡,地震-降雨,滑坡,,103.426388888889,31.2505555555556,1407.0,8.0,60000m3,小型,小型,20.0,0.0,0.0,是,交通运输,16.6986446380615,29.0526037216186,192.634303092956,43.078092417355,10.0,Trees,0.468421710855428,-0.440188893318206,Landsat 7,-94.8469259724181,0.0,1
736,2013-07-01,汶川县绵虒镇码头村1组管寨,河道,滑坡,地震-降雨,滑坡,,103.418888888889,31.2425,1557.0,202.0,64000m3,小型,小型,10.0,0.0,0.0,是,水利（务）,14.3979053497314,32.8797225952148,199.501382827759,42.5083613546501,10.0,Trees,0.858719624618816,-0.780402007632082,Landsat 7,3.0627352571927986,201.25,1
737,2013-07-01,汶川县绵虒镇码头村3组码头村后山,其它,滑坡,地震-降雨,滑坡,,103.419166666667,31.2475,1754.0,276.0,120000m3,中型,小型,0.0,0.0,0.0,否,,14.3979053497314,32.8797225952148,199.501382827759,42.5083613546501,30.0,Grassland,,,Landsat 7,25.29611041402677,576.28,1
741,2013-07-01,汶川县绵虒镇龙潭村1组李家地,公路,滑坡,地震-降雨,滑坡,,103.406666666667,31.2469444444444,1751.0,19.0,2000m3,小型,小型,10.0,0.0,0.0,是,交通运输,14.3979053497314,32.8797225952148,199.501382827759,42.5083613546501,10.0,Trees,0.801160435334913,-0.699858729603277,Landsat 7,-47.9284818068033,90.0,1
744,2013-07-01,汶川县绵虒镇龙潭村1组流水槽,分散农户,滑坡,地震-降雨,滑坡,,103.399166666667,31.2463888888889,1795.0,103.0,130000m3,中型,小型,60.0,2.0,11.0,否,,15.174861907959,34.4870128631592,202.765852928162,43.5702057293003,10.0,Trees,0.790317755645544,-0.711340493792719,Landsat 7,-20.4529485571185,201.25,1
745,2013-07-01,汶川县绵虒镇龙潭村4组得腊书,公路,滑坡,地震-降雨,滑坡,,103.386944444444,31.2605555555556,2090.0,105.0,26000m3,小型,小型,10.0,0.0,0.0,是,交通运输,16.6537666320801,29.5078935623169,202.930978775024,44.7103213468681,10.0,Trees,0.83350331318265,-0.736015579903651,Landsat 7,-4.3011292346614,180.0,1
749,2013-07-01,汶川县绵虒镇龙潭村3组道角,分散农户,滑坡,地震-降雨,滑坡,,103.384444444444,31.2494444444444,1899.0,60.0,11000m3,小型,小型,5.0,1.0,3.0,否,,15.174861907959,34.4870128631592,202.765852928162,43.5702057293003,10.0,Trees,0.826797385620915,-0.717025540495827,Landsat 7,-54.8531994981467,127.28,1
750,2013-07-01,汶川县绵虒镇龙潭村3组道角下方公路,公路,滑坡,地震-降雨,滑坡,,103.385277777778,31.2494444444444,1866.0,220.0,1800m3,小型,小型,10.0,0.0,0.0,是,交通运输,15.174861907959,34.4870128631592,202.765852928162,43.5702057293003,30.0,Grassland,0.758661389160447,-0.656044591385959,Landsat 7,-65.1493099121978,90.0,1
754,2013-07-01,汶川县绵虒镇龙潭村1组猴洞左侧,公路,滑坡,地震-降雨,滑坡,,103.400833333333,31.2441666666667,1679.0,108.0,20000m3,小型,小型,10.0,0.0,0.0,是,交通运输,14.3979053497314,32.8797225952148,199.501382827759,42.5083613546501,10.0,Trees,0.483068321503628,-0.457168181242634,Landsat 7,-142.956085319976,0.0,1
756,2013-07-10,汶川县绵虒镇足湾村2组岩角地,聚集区,滑坡,地震-降雨,滑坡,,103.446944444444,31.2952777777778,1699.0,102.0,22000m3,小型,小型,270.0,9.0,45.0,否,,22.6443576812744,81.7987022399902,225.296801567078,57.5554900992595,10.0,Trees,0.612572939166317,-0.569385616485633,Landsat 7,3.775407779145098,636.4,1
758,2008-05-12,汶川县绵虒镇足湾村2组格里拉林盘,分散农户,滑坡,地震-降雨,滑坡,,103.448055555556,31.2866666666667,1489.0,184.0,1548000m3,大型,小型,180.0,6.0,29.0,否,,0.0,14.6458654403687,73.148136138916,14.8027398831364,30.0,Grassland,0.734415195242266,-0.642775424653945,Landsat 7,-54.4680050188449,270.0,1
775,2013-07-10,汶川县绵虒镇克充村2组刘家沟,分散农户,滑坡,地震-降雨,滑坡,,103.429722222222,31.3002777777778,1482.0,270.0,25000m3,小型,小型,5.0,1.0,3.0,否,,22.8348813056946,78.7665810585022,227.352050304413,55.4634611366054,10.0,Trees,,,Landsat 7,-104.930991217087,0.0,1
782,2013-07-01,汶川县绵虒镇樟排村4组三个塔子,聚集区,滑坡,地震-降雨,滑坡,,103.431944444444,31.2822222222222,2189.0,147.0,120000m3,中型,中型,990.0,33.0,143.0,否,,16.6986446380615,29.0526037216186,192.634303092956,43.078092417355,30.0,Grassland,,,Landsat 7,12.41279799243739,636.4,1
783,2013-07-01,汶川县绵虒镇樟排村4组大流沙,公路,滑坡,地震-降雨,滑坡,,103.441666666667,31.2855555555556,1645.0,270.0,180000m3,中型,小型,20.0,0.0,0.0,是,交通运输,16.6986446380615,29.0526037216186,192.634303092956,43.078092417355,10.0,Trees,0.777488723381937,-0.690243123902751,Landsat 7,34.12923462983531,360.0,1
784,2013-07-01,汶川县绵虒镇樟排村4组核桃林,聚集区,滑坡,地震-降雨,滑坡,,103.438055555556,31.2875,1844.0,350.0,1830000m3,大型,大型,6000.0,91.0,290.0,否,,16.6986446380615,29.0526037216186,192.634303092956,43.078092417355,10.0,Trees,0.736366034428475,-0.681895734597156,Landsat 7,26.070263488051296,636.4,1
801,2008-05-12,汶川县绵虒镇码头村2组小槽,公路,滑坡,地震-降雨,滑坡,,103.414166666667,31.2438888888889,1556.0,32.0,12000m3,小型,小型,10.0,0.0,0.0,是,交通运输,0.0,0.0,43.0937919616699,2.03291530054414,10.0,Trees,0.742497247680187,-0.675942160523113,Landsat 7,-146.59849435385,90.0,1
802,2008-05-12,汶川县绵虒镇码头村2组童家沟,河道,滑坡,地震-降雨,滑坡,,103.423333333333,31.2469444444444,1440.0,306.0,32000m3,小型,小型,10.0,0.0,0.0,是,水利（务）,0.0,0.0,43.0937919616699,2.03291530054414,30.0,Grassland,,,Landsat 7,-84.948557089107,90.0,1
803,2008-05-12,汶川县绵虒镇金波村1组中流槽山体,分散农户,滑坡,地震-降雨,滑坡,,103.396388888889,31.2055555555556,1933.0,258.0,22000m3,小型,小型,150.0,5.0,16.0,否,,0.0,0.0,44.6332981586456,2.17497284877059,10.0,Trees,0.851368953444781,-0.75252014916396,Landsat 7,-25.887076537044,450.0,1
807,2017-07-21,汶川县绵虒镇板子沟村3组小回头旋,公路,滑坡,降雨,滑坡,,103.525833333333,31.4216666666667,1578.0,300.0,17000m3,小型,小型,20.0,0.0,0.0,是,交通运输,,,,,30.0,Grassland,0.688796530972601,-0.6124182144516,Landsat 7,-47.3412797992705,381.84,1
809,2017-07-21,汶川县绵虒镇和平村3组高东山渣子地,其它,滑坡,地震-降雨,滑坡,,103.48,31.3491666666667,1653.0,340.0,80000m3,小型,小型,50.0,0.0,12.0,是,经济和信息化,,,,,30.0,Grassland,0.435935601790542,-0.425211690646505,Landsat 7,86.05520702632248,450.0,1
810,2017-07-21,汶川县绵虒镇和平村2组炭窑子环路,公路,滑坡,地震-降雨,滑坡,,103.483333333333,31.3733333333333,1639.0,305.0,50000m3,小型,小型,20.0,0.0,0.0,是,交通运输,,,,,10.0,Trees,,,Landsat 7,-94.1493099121951,90.0,1
812,2017-07-18,汶川县绵虒镇涂禹山村1组一旦二,其它,滑坡,地震-降雨,滑坡,,103.506666666667,31.3913888888889,1800.0,296.0,12000m3,小型,小型,10.0,0.0,0.0,否,,,,,,30.0,Grassland,0.363661342416183,-0.409476961328039,Landsat 7,33.163111668730835,655.21,1
816,2017-07-11,汶川县绵虒镇龙潭村4组毛明洪家北侧,分散农户,滑坡,地震-降雨,滑坡,,103.386388888889,31.2541666666667,1930.0,303.0,25200m3,小型,小型,5.0,1.0,6.0,否,,,,,,30.0,Grassland,0.727912053290125,-0.669335420505378,Landsat 7,-24.1053952321501,127.28,1
817,2017-07-19,汶川县绵虒镇樟排村4组黄泥巴转拐处,聚集区,滑坡,地震-降雨,滑坡,,103.440833333333,31.2883333333333,1655.0,177.0,120000m3,中型,小型,10.0,0.0,0.0,否,,,,,,10.0,Trees,0.780352159062358,-0.695257185348033,Landsat 7,27.100376411519164,450.0,1
821,2013-06-21,汶川县绵虒镇足湾村2组大草坝,分散农户,滑坡,地震-降雨,滑坡,,103.445833333333,31.2841666666667,1396.0,160.0,45000m3,小型,小型,160.0,8.0,37.0,否,,80.4889717102051,80.4889717102051,227.059879302978,84.0508913631938,40.0,Cropland,0.243387845039388,-0.298700725740631,Landsat 7,-97.5445420326448,90.0,1
822,2019-08-19,汶川县绵虒镇小毛坪村1组水井上,分散农户,滑坡,降雨,滑坡,,103.512777777778,31.4055555555556,1621.0,34.0,340000m3,中型,小型,200.0,7.0,25.0,否,,,,,,30.0,Grassland,,,Landsat 7,-70.4993726474544,90.0,1
901,2008-05-12,汶川县映秀镇黄家院村3组鸦雀窝,分散农户,滑坡,地震-降雨,滑坡,,103.4875,31.0255555555556,1275.0,356.0,38000m3,小型,小型,30.0,2.0,6.0,否,,0.0,7.50755405426025,48.5135290622711,10.4016189608646,10.0,Trees,0.811747549767694,-0.686691450987821,Landsat 7,76.50188205769678,720.0,1
921,2010-08-14,汶川县映秀镇枫香树村2组枫香树,其它,滑坡,地震-降雨,滑坡,,103.4925,31.0591666666667,893.0,31.0,18000m3,小型,小型,0.0,0.0,0.0,否,,83.6861934661865,109.348949432373,318.214832305908,105.095321479316,10.0,Trees,,,Landsat 7,-50.2948557089215,0.0,1
925,2008-05-12,汶川县映秀镇张家坪村1组牛圈沟,其它,滑坡,地震-降雨,滑坡,,103.471944444444,31.0463888888889,972.0,325.0,28000m3,小型,小型,300.0,0.0,20.0,是,经济和信息化,0.0,7.50755405426025,48.5135290622711,10.4016189608646,10.0,Trees,0.626290104301943,-0.559234065977274,Landsat 7,-5.56587202009109,180.0,1
959,2008-05-12,汶川县映秀镇老街村1组栗子坡,聚集区,滑坡,地震-降雨,滑坡,,103.489166666667,31.08,1131.0,140.0,120000m3,中型,小型,385.0,23.0,77.0,否,,0.0,8.43447208404541,57.401673078537,10.7953713220893,10.0,Trees,0.699250490333427,-0.626259071178373,Landsat 7,-8.97490589713152,540.0,1
987,2008-05-12,汶川县卧龙镇足木山村3组糖房上游150米,公路,滑坡,地震-降雨,滑坡,,103.233888888889,31.0875,1803.0,165.0,3000m3,小型,小型,80.0,0.0,0.0,是,交通运输,0.0,0.0,47.1323118209839,2.44395486935668,50.0,Built-up,0.322088591443789,-0.308345892224349,Landsat 7,-166.595984943567,90.0,1
991,2008-05-12,汶川县卧龙镇足木山村3组大梁子,公路,滑坡,地震-降雨,滑坡,,103.200555555556,31.0477777777778,1968.0,182.0,9600m3,小型,小型,70.0,0.0,0.0,是,交通运输,0.0,0.0,38.2333221435547,3.09697273839345,30.0,Grassland,0.685790623677851,-0.622785092613256,Landsat 7,-19.7289836888617,180.0,1
996,2008-05-12,汶川县卧龙镇足木山村3组足木,河道,滑坡,地震-降雨,滑坡,,103.1925,31.0475,2135.0,126.0,54000m3,小型,小型,200.0,0.0,0.0,是,水利（务）,0.0,0.0,46.5853157043457,1.92784506979173,10.0,Trees,0.800250652034007,-0.711000225348485,Landsat 7,-12.9498117942634,254.56,1
999,2008-05-12,汶川县卧龙镇足木山村2组瞭望台,场镇,滑坡,地震-降雨,滑坡,,103.176388888889,31.0375,2302.0,136.0,15000m3,小型,中型,600.0,1.0,397.0,否,,0.0,0.0,46.5853157043457,1.92784506979173,10.0,Trees,0.796066221234167,-0.714606247759157,Landsat 7,21.936010037609776,324.5,1
1002,2008-05-12,汶川县卧龙镇足木山村3组中桥上游,河道,滑坡,地震-降雨,滑坡,,103.246388888889,31.095,1963.0,288.0,112000m3,中型,小型,0.0,0.0,0.0,是,水利（务）,0.0,0.0,47.1323118209839,2.44395486935668,30.0,Grassland,0.665664365382919,-0.64663823580703,Landsat 7,-20.5746549561142,201.25,1
1006,2008-05-12,汶川县卧龙镇转经楼村1组郭珍地,分散农户,滑坡,地震-降雨,滑坡,,103.208055555556,31.0338888888889,2343.0,33.0,11000m3,小型,小型,60.0,2.0,12.0,否,,0.0,0.0,38.2333221435547,3.09697273839345,30.0,Grassland,0.817130968804236,-0.711365374741982,Landsat 7,-33.9209535759455,810.0,1
1007,2008-05-12,汶川县卧龙镇转经楼村1组松疙瘩梁子北西侧,公路,滑坡,地震-降雨,滑坡,,103.211666666667,31.0330555555556,2269.0,311.0,38000m3,小型,小型,10.0,0.0,0.0,是,交通运输,0.0,0.0,38.2333221435547,3.09697273839345,10.0,Trees,0.780279736972225,-0.68176400476758,Landsat 7,24.048933500594103,360.0,1
1027,2008-05-12,汶川县卧龙镇足木山村1组金洞子,分散农户,滑坡,地震-降雨,滑坡,,103.177777777778,31.03,2022.0,318.0,2000m3,小型,小型,120.0,6.0,27.0,否,,0.0,0.0,46.5853157043457,1.92784506979173,10.0,Trees,0.80275678195943,-0.717759395297033,Landsat 7,2.377666248401056,284.6,1
1031,2008-05-12,汶川县卧龙镇转经楼村1组洞口组,分散农户,滑坡,地震-降雨,滑坡,,103.213055555556,31.0308333333333,2145.0,159.0,12000m3,小型,小型,270.0,9.0,28.0,否,,0.0,0.0,38.2333221435547,3.09697273839345,10.0,Trees,0.762894503981909,-0.66369338496369,Landsat 7,-85.36762860731,270.0,1
1035,2008-05-12,汶川县卧龙镇足木山村1组花红树沟水厂,河道,滑坡,地震-降雨,滑坡,,103.174444444444,31.0308333333333,2074.0,350.0,7500m3,小型,小型,200.0,0.0,0.0,是,水利（务）,0.0,0.0,46.5853157043457,1.92784506979173,30.0,Grassland,0.830788139499155,-0.708644595156503,Landsat 7,-37.5708908406836,90.0,1
1046,2010-07-01,汶川县卧龙镇卧龙关村1组松潘营,分散农户-公路,滑坡,地震-降雨,滑坡,,103.145,31.0152777777778,2635.0,269.0,20000m3,小型,小型,200.0,2.0,11.0,否,,0.0,17.3802108764648,120.196578979492,17.3747571919815,10.0,Trees,0.771477674765201,-0.682869897959184,Landsat 7,51.00250941024706,636.4,1
1052,2012-07-01,汶川县卧龙镇卧龙关村2组杨友福后山,分散农户,滑坡,地震-降雨,滑坡,,103.146388888889,31.0027777777778,2066.0,134.0,20000m3,小型,小型,90.0,3.0,14.0,否,,0.0,22.4606170654297,112.838603973389,18.0516276188862,10.0,Trees,0.836857418871721,-0.739924736713864,Landsat 7,-23.3500627352882,201.25,1
1064,2017-07-10,汶川县卧龙镇足木山村3组王玉学后山,分散农户,滑坡,地震-降雨,滑坡,,103.2025,31.0438888888889,1969.0,67.0,12000m3,小型,小型,65.0,2.0,6.0,否,,,,,,10.0,Trees,0.844607805469464,-0.725345195217978,Landsat 7,-37.7703889586239,201.25,1
1067,2017-07-12,汶川县卧龙镇足木山村1组胡先友房后,分散农户,滑坡,地震-降雨,滑坡,,103.181388888889,31.0283333333333,2005.0,250.0,31500m3,小型,小型,35.0,1.0,5.0,否,,,,,,10.0,Trees,0.831972101716292,-0.737582059652233,Landsat 7,-77.7590966123293,90.0,1
1070,2017-07-14,汶川县卧龙镇足木山村1组花红树沟水厂1号,河道,滑坡,地震-降雨,滑坡,,103.175555555556,31.03,2061.0,66.0,14000m3,小型,小型,70.0,0.0,0.0,是,水利（务）,,,,,30.0,Grassland,0.830054427013571,-0.734559529338907,Landsat 7,-3.46675031370796,127.28,1
1071,2017-07-15,汶川县卧龙镇卧龙关村1组川北营安置点对面,河道,滑坡,地震-降雨,滑坡,,103.161388888889,31.0066666666667,2279.0,125.0,448000m3,中型,小型,90.0,0.0,0.0,是,水利（务）,,,,,10.0,Trees,0.771642417993661,-0.688989205817573,Landsat 7,33.41279799243921,402.49,1
1073,2019-08-21,汶川县卧龙镇卧龙关村4组王安明房后,分散农户,滑坡,降雨,滑坡,,103.128055555556,30.9802777777778,2115.0,135.0,1350000m3,大型,小型,200.0,6.0,26.0,否,,,,,,10.0,Trees,0.849299027770318,-0.737693499623979,Landsat 7,-83.6160602258801,127.28,1
1078,2013-07-10,汶川县水磨镇大岩洞村1组蒲国英房后,分散农户,滑坡,地震-降雨,滑坡,,103.403055555556,30.94,1006.0,110.0,900m3,小型,小型,60.0,2.0,6.0,否,,75.1938905715942,163.923085212707,294.327044487,114.618155152627,10.0,Trees,0.604055708094876,-0.553462444134749,Landsat 7,-21.9397741530892,90.0,1
1079,2013-07-10,汶川县水磨镇连山坡村1组鸭厂背后,其它,滑坡,地震-降雨,滑坡,,103.403055555556,30.9388888888889,1002.0,85.0,16000m3,小型,小型,0.0,0.0,0.0,否,,75.1938905715942,163.923085212707,294.327044487,114.618155152627,10.0,Trees,,,Landsat 7,-28.3387703889739,90.0,1
1081,2013-07-10,汶川县水磨镇连山坡村1组老火地,分散农户,滑坡,地震-降雨,滑坡,,103.4025,30.9388888888889,1026.0,138.0,10800m3,小型,小型,90.0,3.0,9.0,否,,75.1938905715942,163.923085212707,294.327044487,114.618155152627,10.0,Trees,,,Landsat 7,-9.67126725221123,127.28,1
1085,2011-07-03,汶川县水磨镇陈家山村1组大溏,其它,滑坡,降雨,滑坡,,103.369166666667,30.8938888888889,1017.0,33.0,8000m3,小型,小型,0.0,0.0,0.0,否,,79.2137546539307,79.2137546539307,159.237875938415,77.4134853789414,10.0,Trees,,,Landsat 7,-20.3751568381594,90.0,1
1086,2009-06-23,汶川县水磨镇陈家山村1组草坪矿山,分散农户,滑坡,降雨,滑坡,,103.363888888889,30.895,1165.0,198.0,192000m3,中型,小型,140.0,4.0,12.0,否,,0.0,16.6570158004761,65.3074269294739,10.8638024237616,10.0,Trees,,,Landsat 7,15.227101631100822,324.5,1
1087,2009-06-24,汶川县水磨镇陈家山村2组王家地,分散农户,滑坡,降雨,滑坡,,103.366388888889,30.8888888888889,1080.0,225.0,59000m3,小型,小型,120.0,4.0,22.0,否,,0.0,16.6570158004761,65.3074269294739,9.23423206019736,10.0,Trees,,,Landsat 7,-36.5859473024004,201.25,1
1088,2008-05-12,汶川县水磨镇连山坡村3组煤炭弯,分散农户,滑坡,地震-降雨,滑坡,,103.3925,30.9305555555556,1113.0,270.0,13000m3,小型,小型,120.0,4.0,11.0,否,,0.0,7.49271202087402,55.6764695644379,10.1107476272452,10.0,Trees,0.771842188553579,-0.655913010487869,Landsat 7,-78.702634880821,90.0,1
1089,2008-05-12,汶川县水磨镇大岩洞村1组大岩洞,分散农户,滑坡,地震-降雨,滑坡,,103.401666666667,30.94,1022.0,280.0,24000m3,小型,小型,65.0,2.0,7.0,否,,0.0,7.23100137710571,58.2178151607513,9.79454322019584,10.0,Trees,0.626056731971917,-0.536502506354976,Landsat 7,-21.9611041405421,90.0,1
1091,2008-05-12,汶川县水磨镇大岩洞村3组沟边上,分散农户,滑坡,地震-降雨,滑坡,,103.385277777778,30.9430555555556,1373.0,270.0,310000m3,中型,小型,90.0,3.0,12.0,否,,0.0,7.49271202087402,55.6764695644379,10.1107476272452,10.0,Trees,0.690612175826036,-0.59102581968029,Landsat 7,-23.6712672522157,450.0,1
1092,2008-05-12,汶川县水磨镇黄家坪村1组吊坡,分散农户,滑坡,地震-降雨,滑坡,,103.392777777778,30.9463888888889,1166.0,95.0,65000m3,小型,小型,95.0,3.0,11.0,否,,0.0,7.49271202087402,55.6764695644379,10.1107476272452,10.0,Trees,0.55486219448778,-0.464579815710161,Landsat 7,-28.4215809284987,90.0,1
1093,2008-05-12,汶川县水磨镇黄家坪村1组煤炭坡,分散农户,滑坡,地震-降雨,滑坡,,103.3875,30.9488888888889,1382.0,208.0,94000m3,小型,小型,110.0,3.0,19.0,否,,0.0,7.49271202087402,55.6764695644379,10.1107476272452,10.0,Trees,0.656705328367138,-0.571549526542456,Landsat 7,25.66499372645285,324.5,1
1095,2013-07-10,汶川县水磨镇牛塘沟村5组山核桃,公路,滑坡,地震-降雨,滑坡,,103.406388888889,30.9530555555556,1195.0,136.0,14000m3,小型,小型,10.0,0.0,0.0,是,交通运输,65.3691730499268,143.507978439331,277.351511955261,100.459596077938,10.0,Trees,,,Landsat 7,-14.4579673776854,180.0,1
1096,2008-05-12,汶川县水磨镇黄家坪村5组罗家坡,分散农户,滑坡,地震-降雨,滑坡,,103.391388888889,30.9463888888889,1210.0,179.0,219000m3,中型,小型,100.0,3.0,16.0,否,,0.0,7.49271202087402,55.6764695644379,10.1107476272452,10.0,Trees,0.5822032390105,-0.494528154926342,Landsat 7,-21.7503136763029,201.25,1
1097,2013-07-10,汶川县水磨镇黄家坪村4组白杨林,分散农户,滑坡,地震-降雨,滑坡,,103.388333333333,30.9502777777778,1296.0,84.0,60000m3,小型,小型,95.0,3.0,14.0,否,,58.5807466506958,133.354199409485,268.700438976288,93.8893095425145,10.0,Trees,,,Landsat 7,-20.3851944793148,180.0,1
1106,2008-05-12,汶川县水磨镇白果坪村2组尖岩,聚集区,滑坡,地震-降雨,滑坡,,103.383888888889,30.9,1015.0,292.0,580000m3,中型,中型,600.0,12.0,55.0,否,,0.0,0.0,31.6842124462128,2.41747173661633,10.0,Trees,,,Landsat 7,-40.603513174422,254.56,1
1108,2012-07-03,汶川县水磨镇高峰村1组杨柳湾,分散农户,滑坡,地震-降雨,滑坡,,103.39,30.9002777777778,969.0,292.0,8800m3,小型,小型,30.0,1.0,3.0,否,,0.0,0.0,57.196346282959,18.8762755991781,10.0,Trees,,,Landsat 7,-53.3412797992646,90.0,1
1109,1966-07-23,汶川县水磨镇高峰村1组黑泥沟,分散农户,滑坡,地震-降雨,滑坡,,103.3975,30.9025,1076.0,165.0,8000m3,小型,小型,160.0,5.0,24.0,否,,,,,,10.0,Trees,,,Landsat 7,-19.3751568381587,381.84,1
1112,2008-05-12,汶川县水磨镇高峰村5组何家院子,分散农户,滑坡,地震-降雨,滑坡,,103.408055555556,30.9052777777778,1180.0,92.0,24000m3,小型,小型,60.0,2.0,4.0,否,,0.0,7.23100137710571,58.2178151607513,9.79454322019584,10.0,Trees,0.566414593315246,-0.522075991614138,Landsat 7,-19.321204516955,90.0,1
1114,2008-05-12,汶川县水磨镇高峰村3组杨家大坡,分散农户,滑坡,地震-降雨,滑坡,,103.404166666667,30.9016666666667,1226.0,278.0,26000m3,小型,小型,90.0,3.0,16.0,否,,0.0,7.23100137710571,58.2178151607513,9.79454322019584,10.0,Trees,,,Landsat 7,14.397741530723124,450.0,1
1115,2008-05-12,汶川县水磨镇高峰村1组宋家岗,分散农户-公路,滑坡,地震-降雨,滑坡,,103.395277777778,30.9055555555556,972.0,293.0,5400m3,小型,小型,80.0,2.0,11.0,否,,0.0,7.49271202087402,55.6764695644379,10.1107476272452,30.0,Grassland,,,Landsat 7,-55.5734002509577,0.0,1
1116,2008-05-12,汶川县水磨镇刘家沟村7组花龙门,分散农户,滑坡,地震-降雨,滑坡,,103.4375,30.9338888888889,1108.0,30.0,83000m3,小型,小型,180.0,4.0,12.0,否,,0.0,7.23100137710571,58.2178151607513,9.79454322019584,10.0,Trees,,,Landsat 7,-6.25972396488577,284.6,1
1120,2008-05-12,汶川县水磨镇刘家沟村5组刘家沟,公路,滑坡,地震-降雨,滑坡,,103.44,30.9208333333333,1157.0,287.0,39000m3,小型,小型,50.0,0.0,0.0,是,交通运输,0.0,7.23100137710571,58.2178151607513,9.79454322019584,10.0,Trees,0.463615193674136,-0.46968282383575,Landsat 7,-55.693851944809,90.0,1
1123,2008-05-12,汶川县水磨镇牛塘沟村5组大坪,分散农户,滑坡,地震-降雨,滑坡,,103.406666666667,30.9541666666667,1212.0,281.0,3000m3,小型,小型,90.0,3.0,14.0,否,,0.0,7.07919216156006,57.134220123291,9.61390400052348,10.0,Trees,,,Landsat 7,-13.5608531995171,90.0,1
1124,2008-05-12,汶川县水磨镇牛塘沟村4组牛塘,分散农户,滑坡,地震-降雨,滑坡,,103.406666666667,30.9530555555556,1210.0,113.0,7500m3,小型,小型,70.0,2.0,9.0,否,,0.0,7.07919216156006,57.134220123291,9.61390400052348,10.0,Trees,,,Landsat 7,-0.190715181951418,180.0,1
1126,2008-05-12,汶川县水磨镇大槽头村1组段家庙子,分散农户,滑坡,地震-降雨,滑坡,,103.423333333333,30.9405555555556,996.0,131.0,3600m3,小型,小型,120.0,4.0,19.0,否,,0.0,7.23100137710571,58.2178151607513,9.79454322019584,50.0,Built-up,0.499110924981292,-0.467308183369844,Landsat 7,3.4767879548170413,381.84,1
1127,2008-05-12,汶川县水磨镇大槽头村2组后塘,聚集区,滑坡,地震-降雨,滑坡,,103.423333333333,30.9463888888889,1090.0,153.0,1760m3,小型,小型,350.0,11.0,30.0,否,,0.0,7.23100137710571,58.2178151607513,9.79454322019584,50.0,Built-up,0.515246088873542,-0.470144830429853,Landsat 7,-40.6323713927406,763.68,1
1132,2009-07-13,汶川县水磨镇马家营村4组段家后头,分散农户,滑坡,地震-降雨,滑坡,,103.416666666667,30.9216666666667,1067.0,132.0,1100m3,小型,小型,50.0,2.0,7.0,否,,0.0,20.6148509979248,82.5572018623352,16.6310984104967,10.0,Trees,0.667270216864681,-0.579636694056917,Landsat 7,7.301129234614109,254.56,1
1135,2008-05-12,汶川县水磨镇马家营村1组马家营,其它,滑坡,地震-降雨,滑坡,,103.415833333333,30.9216666666667,1053.0,90.0,200m3,小型,小型,0.0,0.0,0.0,否,,0.0,7.23100137710571,58.2178151607513,9.79454322019584,10.0,Trees,0.705459916073424,-0.622610648089634,Landsat 7,2.834378920937752,201.25,1
1137,2010-07-01,汶川县水磨镇大槽头村1组彭家槽,分散农户,滑坡,地震-降雨,滑坡,,103.423333333333,30.9388888888889,960.0,240.0,22000m3,小型,小型,120.0,4.0,20.0,否,,0.0,0.0,113.249824523926,8.88715799654002,30.0,Grassland,0.490785366299649,-0.484493578279954,Landsat 7,0.4604767879411611,284.6,1
1138,2008-05-12,汶川县水磨镇大槽头村3组王克清房后,分散农户,滑坡,地震-降雨,滑坡,,103.423888888889,30.9508333333333,1174.0,115.0,18900m3,小型,小型,60.0,2.0,10.0,否,,0.0,7.07919216156006,57.134220123291,9.61390400052348,30.0,Grassland,0.491126210638406,-0.470113671159771,Landsat 7,-32.1104140527149,484.66,1
1140,2008-05-12,汶川县水磨镇大槽头村4组王仕明房后,分散农户,滑坡,地震-降雨,滑坡,,103.430833333333,30.9541666666667,1210.0,132.0,180000m3,中型,小型,35.0,1.0,5.0,否,,0.0,7.07919216156006,57.134220123291,9.61390400052348,10.0,Trees,0.60560356252982,-0.538322836245429,Landsat 7,31.178168130469885,284.6,1
1141,2008-05-12,汶川县水磨镇大槽头村4组杨伏贵房后,分散农户,滑坡,地震-降雨,滑坡,,103.433055555556,30.9544444444444,1217.0,294.0,30800m3,小型,小型,30.0,1.0,6.0,否,,0.0,7.07919216156006,57.134220123291,9.61390400052348,10.0,Trees,0.611203017086799,-0.546930275178408,Landsat 7,2.8720200752629808,509.12,1
1144,2013-07-10,汶川县水磨镇啣凤岩村4组含风岩,其它,滑坡,地震-降雨,滑坡,,103.4375,30.9488888888889,1012.0,355.0,450000m3,中型,小型,50.0,0.0,0.0,是,水利（务）,75.1938905715942,163.923085212707,294.327044487,114.618155152627,10.0,Trees,0.722896723721842,-0.637414211928964,Landsat 7,20.144291091577543,324.5,1
1145,2013-07-10,汶川县水磨镇啣凤岩村4组郑家沟,分散农户,滑坡,地震-降雨,滑坡,,103.4375,30.9463888888889,894.0,260.0,22000m3,小型,小型,90.0,3.0,16.0,否,,75.1938905715942,163.923085212707,294.327044487,114.618155152627,10.0,Trees,,,Landsat 7,-43.4178168130634,127.28,1
1149,2007-06-15,汶川县水磨镇黑土坡村1组黑土坡,分散农户,滑坡,地震-降雨,滑坡,,103.406666666667,30.9241666666667,972.0,352.0,130000m3,中型,小型,200.0,6.0,18.0,否,,0.0,33.5488815307617,44.7318420410156,19.6378765147313,10.0,Trees,0.617406969543433,-0.565774235302132,Landsat 7,-18.8180677540917,201.25,1
1150,2008-05-12,汶川县水磨镇寨子坪村1组山水人家回头湾,分散农户,滑坡,地震-降雨,滑坡,,103.410555555556,30.9283333333333,945.0,329.0,1125m3,小型,小型,60.0,2.0,6.0,否,,0.0,7.23100137710571,58.2178151607513,9.79454322019584,10.0,Trees,,,Landsat 7,-20.5332496863386,127.28,1
1151,2013-07-10,汶川县水磨镇寨子坪村1组半边街背后潘达尔,分散农户,滑坡,地震-降雨,滑坡,,103.414444444444,30.93,918.0,224.0,10000m3,小型,小型,120.0,4.0,15.0,否,,75.1938905715942,163.923085212707,294.327044487,114.618155152627,60.0,Bare / Sparse vegetation,0.523096696151811,-0.479778466601049,Landsat 7,-11.7427854454366,90.0,1
1155,2008-05-12,汶川县水磨镇寨子坪村2组横街子,分散农户,滑坡,地震-降雨,滑坡,,103.405833333333,30.9327777777778,1103.0,248.0,60000m3,小型,小型,120.0,4.0,14.0,否,,0.0,7.23100137710571,58.2178151607513,9.79454322019584,10.0,Trees,0.678310681792654,-0.618861314923046,Landsat 7,17.972396486808293,547.45,1
1164,2017-07-12,汶川县水磨镇高峰村5组大坡,分散农户,滑坡,地震-降雨,滑坡,,103.333888888889,30.91,1162.0,290.0,42000m3,小型,小型,120.0,4.0,15.0,否,,,,,,10.0,Trees,,,Landsat 7,-42.257214554598,201.25,1
1165,2017-07-12,汶川县水磨镇黑土坡村2组李子坪,聚集区,滑坡,地震-降雨-其他,滑坡,,103.400555555556,30.9269444444444,1213.0,215.0,150000m3,中型,小型,300.0,9.0,32.0,否,,,,,,10.0,Trees,0.610757630236424,-0.528903177939904,Landsat 7,35.43789209534157,763.68,1
1166,2017-07-12,汶川县水磨镇啣凤岩村5组陈定发屋后,分散农户,滑坡,地震-降雨,滑坡,,103.436388888889,30.9463888888889,910.0,227.0,14000m3,小型,小型,150.0,4.0,13.0,否,,,,,,10.0,Trees,0.558928614248375,-0.518735399470487,Landsat 7,-31.2484316185842,180.0,1
1167,2017-07-12,汶川县水磨镇啣凤岩村1组杨家大坡,分散农户,滑坡,地震-降雨,滑坡,,103.446388888889,30.9555555555556,973.0,97.0,42000m3,小型,小型,300.0,9.0,22.0,否,,,,,,10.0,Trees,0.389199255121043,-0.334380061809979,Landsat 7,16.318695106635346,254.56,1
1168,2017-07-12,汶川县水磨镇白石村3组梅子坪,分散农户,滑坡,地震-降雨,滑坡,,103.385,30.8925,1004.0,272.0,75000m3,小型,小型,180.0,4.0,13.0,否,,,,,,10.0,Trees,,,Landsat 7,-48.8720200752975,0.0,1
1169,2018-07-15,汶川县水磨镇啣凤岩村4组金鱼塘,分散农户,滑坡,地震,滑坡,,103.435277777778,30.9538888888889,1206.0,312.0,150000m3,中型,小型,100.0,5.0,20.0,否,,,,,,10.0,Trees,0.676344300763892,-0.615565980993624,Landsat 7,13.410288582165094,576.28,1
1170,2018-07-15,汶川县水磨镇啣凤岩村4组师公静家房后,分散农户,滑坡,地震,滑坡,,103.436388888889,30.9516666666667,1147.0,68.0,3000m3,小型,小型,30.0,1.0,9.0,否,,,,,,10.0,Trees,,,Landsat 7,44.11292346296841,576.28,1
1171,2018-07-15,汶川县水磨镇刘家沟村5组弯地,分散农户,滑坡,地震,滑坡,,103.44,30.9188888888889,1189.0,244.0,24000m3,小型,小型,100.0,5.0,15.0,否,,,,,,10.0,Trees,0.673555494185155,-0.573943407933279,Landsat 7,-44.0602258469461,0.0,1
1176,2008-05-12,汶川县三江镇街村3组姚士良,分散农户,滑坡,地震-降雨,滑坡,,103.341388888889,30.9194444444444,1090.0,265.0,6000m3,小型,小型,60.0,2.0,8.0,否,,0.0,8.14380550384521,52.7626931667328,11.1550981850823,10.0,Trees,0.580125437592455,-0.538771412927281,Landsat 7,-14.521957340042,90.0,1
1192,2013-07-10,汶川县三江镇邓家村1组李家坡,分散农户,滑坡,地震-降雨,滑坡,,103.325555555556,30.895,1453.0,13.0,38700m3,小型,小型,180.0,6.0,21.0,否,,65.3089828491211,149.203819274902,273.891388893127,102.565546943269,10.0,Trees,,,Landsat 7,-8.49309912172839,547.45,1
1193,2013-07-10,汶川县三江镇邓家村1组余家地,分散农户,滑坡,地震-降雨,滑坡,,103.325833333333,30.8975,1450.0,24.0,17000m3,小型,小型,185.0,6.0,23.0,否,,65.3089828491211,149.203819274902,273.891388893127,102.565546943269,10.0,Trees,,,Landsat 7,22.648682559577765,540.0,1
1195,2008-05-12,汶川县三江镇邓家村1组陈家杠公路,公路,滑坡,地震-降雨,滑坡,,103.329722222222,30.9005555555556,1459.0,315.0,88000m3,小型,小型,10.0,0.0,0.0,是,交通运输,0.0,8.14380550384521,52.7626931667328,11.1550981850823,10.0,Trees,,,Landsat 7,-2.27603513176518,763.68,1
1199,2008-05-12,汶川县三江镇河坝村4组沙子坡,公路,滑坡,地震-降雨,滑坡,,103.335,30.9091666666667,1242.0,284.0,7500m3,小型,小型,10.0,0.0,0.0,是,交通运输,0.0,8.14380550384521,52.7626931667328,11.1550981850823,10.0,Trees,,,Landsat 7,-1.07904642410881,324.5,1
1208,2008-05-12,汶川县三江镇龙竹村1组毛草坡,分散农户,滑坡,地震-降雨,滑坡,,103.345,30.8938888888889,1163.0,271.0,300000m3,中型,小型,60.0,2.0,8.0,否,,0.0,8.35093402862549,56.2810397148132,11.488288035528,10.0,Trees,,,Landsat 7,-25.6787954830799,201.25,1
1209,2005-03-01,汶川县三江镇龙竹村1组关房组,分散农户,滑坡,地震-降雨,滑坡,,103.336388888889,30.895,1531.0,70.0,180000m3,中型,小型,60.0,2.0,6.0,否,,1.87830197811127,3.53752613067627,16.5785683989525,4.00559596255502,10.0,Trees,,,Landsat 7,9.215809284794886,886.4,1
1215,2009-03-01,汶川县三江镇柒山村1组殷家坪,分散农户,滑坡,地震-降雨,滑坡,,103.338888888889,30.935,1333.0,268.0,240000m3,中型,小型,70.0,2.0,12.0,否,,0.0,5.79471063613892,5.79471063613892,2.64393730663369,10.0,Trees,0.770223034916844,-0.692303118589648,Landsat 7,-20.4843161857172,450.0,1
1217,2008-05-12,汶川县三江镇柒山村4组帐口岩,分散农户,滑坡,地震-降雨,滑坡,,103.343888888889,30.9283333333333,1299.0,330.0,33600m3,小型,小型,105.0,3.0,17.0,否,,0.0,8.14380550384521,52.7626931667328,11.1550981850823,10.0,Trees,0.578414973482476,-0.522263677788312,Landsat 7,49.54077791717009,450.0,1
1233,2010-10-01,汶川县三江镇席草村1组石塘,聚集区,滑坡,地震-降雨,滑坡,,103.306666666667,30.9002777777778,1291.0,330.0,34000m3,小型,小型,300.0,10.0,39.0,否,,0.0,0.0,137.710876941681,14.699945188144,10.0,Trees,,,Landsat 7,10.883312421560504,284.6,1
1234,2006-05-03,汶川县三江镇席草村3组白茶地,公路,滑坡,地震-降雨,滑坡,,103.300555555556,30.8975,1336.0,118.0,22000m3,小型,小型,10.0,0.0,0.0,是,交通运输,0.0,5.99750757217407,34.4688537120819,6.86497005159934,10.0,Trees,,,Landsat 7,-16.015056461752,270.0,1
1236,2009-10-10,汶川县三江镇席草村3组阴山槽,公路,滑坡,地震-降雨,滑坡,,103.2875,30.8902777777778,1454.0,141.0,32000m3,小型,小型,20.0,0.0,0.0,是,交通运输,38.571460723877,77.1429214477539,176.275220870972,57.3266898343875,10.0,Trees,,,Landsat 7,17.18067754075173,371.08,1
1260,2017-07-03,汶川县三江镇街村2组大地,聚集区,滑坡,地震-降雨,滑坡,,103.338888888889,30.9194444444444,1092.0,89.0,14400m3,小型,小型,390.0,13.0,47.0,否,,,,,,10.0,Trees,0.584726938494141,-0.519130163430886,Landsat 7,-49.0363864492023,180.0,1
1266,2014-08-30,汶川县三江镇河坝村1组周家大林,分散农户,滑坡,地震-降雨,滑坡,,103.341388888889,30.9125,1263.0,10.0,60000m3,小型,小型,300.0,14.0,64.0,否,,25.5683097839356,52.9833984375,262.196876525879,60.8222238024785,10.0,Trees,,,Landsat 7,44.17440401503836,450.0,1
1267,2019-08-20,汶川县三江镇河坝村四组队窝坪,河道,滑坡,降雨,滑坡,,103.326666666667,30.9016666666667,1347.0,180.0,110000m3,中型,小型,440.0,0.0,0.0,是,水利（务）,,,,,10.0,Trees,,,Landsat 7,13.386449184421508,381.84,1
1268,2019-08-20,汶川县三江镇河坝村4组姚坪湾公路,公路,滑坡,降雨,滑坡,,103.325277777778,30.9005555555556,1329.0,71.0,710000m3,中型,小型,10.0,0.0,0.0,是,交通运输,,,,,10.0,Trees,,,Landsat 7,-9.68632371394778,450.0,1
1269,2013-12-31,杂谷脑镇玛瑙村三组科多寨黄泥巴洞,公路,滑坡,地震-降雨,滑坡,,103.204722222222,31.42,2305.0,26.0,15000m3,小型,小型,10.0,0.0,0.0,是,水利（务）,0.0,2.42985558509827,5.04665851593018,1.70516931315818,10.0,Trees,0.762911226026806,-0.671031810989251,Landsat 7,-8.14805520706431,324.5,1
1270,2013-12-31,杂谷脑镇营盘村三组木格尔洼,聚集区,滑坡,地震-降雨,滑坡,,103.180277777778,31.4269444444444,2142.0,45.0,200000m3,中型,小型,280.0,15.0,70.0,否,,0.0,3.43230104446411,7.33622193336487,2.449896079605,10.0,Trees,0.846080694383208,-0.735037457139607,Landsat 7,-22.4052697616393,371.08,1
1271,2013-12-31,杂谷脑镇营盘村三组梁子,聚集区,滑坡,地震-降雨,滑坡,,103.176666666667,31.4288888888889,2049.0,103.0,400000m3,中型,中型,560.0,28.0,134.0,否,,0.0,3.43230104446411,7.33622193336487,2.449896079605,10.0,Trees,0.795572445409579,-0.707574048224564,Landsat 7,-35.5934755332814,324.5,1
1272,2013-12-31,杂谷脑镇营盘村四组邓永彬对面,聚集区,滑坡,地震-降雨,滑坡,,103.1875,31.4241666666667,2183.0,209.0,300000m3,中型,中型,600.0,30.0,114.0,否,,0.0,3.43230104446411,7.33622193336487,2.449896079605,10.0,Trees,0.811983824115737,-0.724297419127544,Landsat 7,-22.8958594730606,270.0,1
1273,2013-12-31,杂谷脑镇克增村二组木碗寨,聚集区,滑坡,地震-降雨,滑坡,,103.220555555556,31.42,2442.0,197.0,600000m3,中型,中型,780.0,39.0,149.0,否,,0.0,2.42985558509827,5.04665851593018,1.70516931315818,10.0,Trees,0.807929500572892,-0.696314799298057,Landsat 7,-36.1894604768249,254.56,1
1274,2013-12-31,杂谷脑镇打色尔村二组谭家大堰,公路,滑坡,地震-降雨,滑坡,,103.120555555556,31.4419444444444,2333.0,28.0,225000m3,中型,小型,2.0,0.0,0.0,是,交通运输,0.0,3.52022767066956,7.63369822502136,2.50129948336082,10.0,Trees,0.785466171942844,-0.711761032866811,Landsat 7,-110.992471769168,0.0,1
1275,2013-12-31,杂谷脑镇打色尔村一组蒲卡寨,分散农户,滑坡,地震-降雨,滑坡,,103.124166666667,31.4433333333333,2375.0,204.0,100000m3,中型,小型,120.0,6.0,24.0,否,,0.0,3.52022767066956,7.63369822502136,2.50129948336082,10.0,Trees,0.804535381982362,-0.733306343773386,Landsat 7,-77.8996235884897,180.0,1
1276,2013-12-31,杂谷脑镇瓦斯村上寨组瓦斯寨,聚集区,滑坡,地震-降雨,滑坡,,103.183055555556,31.4591666666667,2456.0,227.0,500000m3,中型,中型,200.0,42.0,173.0,否,,0.0,0.0,5.55521869659424,0.32515603036788,40.0,Cropland,0.661027871757693,-0.590895939820619,Landsat 7,51.664993726441935,630.0,1
1277,2013-12-31,杂谷脑镇日底村白栈房组王家湾,分散农户,滑坡,地震-降雨,滑坡,,103.164444444444,31.4602777777778,2070.0,27.0,45000m3,小型,小型,21.0,1.0,3.0,否,,0.0,0.0,5.55521869659424,0.32515603036788,30.0,Grassland,0.554212862767113,-0.526675131507346,Landsat 7,33.98494353823821,360.0,1
1278,2013-12-31,杂谷脑镇日底村白栈房组中白栈房后坪坎下,聚集区,滑坡,地震-降雨,滑坡,,103.168055555556,31.4555555555556,1957.0,69.0,160000m3,中型,小型,220.0,11.0,45.0,否,,0.0,0.0,5.55521869659424,0.32515603036788,30.0,Grassland,0.778066470384708,-0.715842656990223,Landsat 7,26.40025094099724,324.5,1
1279,2013-12-31,杂谷脑镇日底村日底组危关徐宁河坝,企业,滑坡,地震-降雨,滑坡,,103.19,31.4797222222222,1835.0,318.0,30000m3,小型,小型,40.0,0.0,0.0,是,经济和信息化,0.0,0.0,5.55521869659424,0.32515603036788,10.0,Trees,0.709314425807362,-0.62768199796777,Landsat 7,-51.1844416562389,127.28,1
1280,2013-12-31,杂谷脑镇兴隆村一组兴隆村铁厂,分散农户-公路,滑坡,地震-降雨,滑坡,,103.156666666667,31.4438888888889,2136.0,172.0,200000m3,中型,小型,60.0,3.0,15.0,否,,0.0,3.43230104446411,7.33622193336487,2.449896079605,10.0,Trees,0.799671150165773,-0.712706261102667,Landsat 7,9.904642408998823,270.0,1
1282,2013-12-31,杂谷脑镇第三居委会县城营盘街小学,学校,滑坡,地震-降雨,滑坡,,103.1675,31.4344444444444,2025.0,355.0,800000m3,中型,特大型,600.0,1.0,1700.0,是,教育,0.0,3.43230104446411,7.33622193336487,2.449896079605,30.0,Grassland,0.772579466830924,-0.680683454214544,Landsat 7,9.304893350033808,402.49,1
1283,2013-12-31,杂谷脑镇第三居委会县城经济适用房后侧,县城-聚集区,滑坡,地震-降雨,滑坡,,103.170555555556,31.4327777777778,2001.0,5.0,25000m3,小型,中型,500.0,1.0,160.0,否,,0.0,3.43230104446411,7.33622193336487,2.449896079605,10.0,Trees,0.785771499308236,-0.692115558438153,Landsat 7,-19.7678795483359,254.56,1
1284,2013-12-31,杂谷脑镇第三居委会县城县林业局后山,县城-聚集区,滑坡,地震-降雨,滑坡,,103.164444444444,31.4344444444444,2030.0,197.0,120000m3,中型,中型,1000.0,1.0,100.0,否,,0.0,3.43230104446411,7.33622193336487,2.449896079605,10.0,Trees,0.812479409632997,-0.706781016463061,Landsat 7,-28.994981179454,603.74,1
1285,2013-12-31,杂谷脑镇第三居委会县城县医院后山,县城-聚集区,滑坡,地震-降雨,滑坡,,103.1625,31.435,1989.0,198.0,200000m3,中型,大型,1000.0,1.0,800.0,否,,0.0,3.43230104446411,7.33622193336487,2.449896079605,10.0,Trees,0.800700528126438,-0.717293456831455,Landsat 7,-45.3814303638951,450.0,1
1286,2013-12-31,杂谷脑镇官田村二组查枝寨,分散农户,滑坡,地震-降雨,滑坡,,103.157777777778,31.4630555555556,2518.0,113.0,100000m3,中型,小型,100.0,5.0,23.0,否,,0.0,0.0,5.55521869659424,0.32515603036788,30.0,Grassland,0.60058909789644,-0.574426282509621,Landsat 7,48.08030112919687,402.49,1
1287,2013-12-31,杂谷脑镇官田村四满溪寨,公路-聚集区,滑坡,地震-降雨,滑坡,,103.144444444444,31.4475,2319.0,176.0,200000m3,中型,中型,460.0,23.0,100.0,否,,0.0,3.52022767066956,7.63369822502136,2.50129948336082,10.0,Trees,0.833837164994284,-0.729108906148015,Landsat 7,-27.1079046424488,201.25,1
1288,2008-05-12,杂谷脑镇玛脑村、营盘村永古山,聚集区,滑坡,地震-降雨,滑坡,,103.186388888889,31.4305555555556,2180.0,213.0,75000m3,小型,小型,200.0,10.0,45.0,否,,0.0,0.0,46.719714641571,2.47609087424323,30.0,Grassland,0.673686919920663,-0.63781697496796,Landsat 7,2.608531994945679,324.5,1
1331,2017-06-15,杂谷脑镇玛瑙村二组火克山,公路-聚集区,滑坡,地震-降雨,滑坡,,103.200277777778,31.4233333333333,2197.0,246.0,390000m3,中型,小型,345.0,17.0,64.0,否,,,,,,40.0,Cropland,0.404459046477383,-0.421701547542359,Landsat 7,-9.170639899658,127.28,1
1332,2017-06-21,杂谷脑镇玛瑙村一组古家房后豹子,公路-聚集区,滑坡,地震-降雨,滑坡,,103.206666666667,31.4194444444444,2237.0,198.0,23000m3,小型,小型,405.0,20.0,72.0,否,,,,,,10.0,Trees,0.748851361165687,-0.67046624557304,Landsat 7,-79.303638644958,201.25,1
1337,2017-05-12,杂谷脑镇城关社区李清选房后,聚集区,滑坡,地震-降雨,滑坡,,103.156666666667,31.4355555555556,1854.0,331.0,40000m3,小型,小型,100.0,3.0,10.0,否,,,,,,10.0,Trees,0.557687731714244,-0.530803291920312,Landsat 7,-78.612296110442,90.0,1
1340,2017-04-24,杂谷脑镇瓦斯村一组塔子,公路,滑坡,地震-降雨,滑坡,,103.177777777778,31.4580555555556,2178.0,241.0,290000m3,中型,小型,3.0,0.0,0.0,是,交通运输,,,,,10.0,Trees,0.761472949611293,-0.651279094045477,Landsat 7,40.53575909658002,603.74,1
1343,2008-05-12,杂谷脑镇打色尔村三组柏枝寨,聚集区,滑坡,地震-降雨,滑坡,,103.105277777778,31.4480555555556,2479.0,46.0,3000000m3,大型,小型,320.0,16.0,57.0,是,其他,0.0,0.0,48.5953652858734,2.51028066944929,30.0,Grassland,0.378150036416606,-0.386720549436744,Landsat 7,-99.28356336265,90.0,1
1349,2013-12-31,米亚罗镇长河坝村一组取料厂,公路,滑坡,地震-降雨,滑坡,,102.822777777778,31.6463888888889,2735.0,250.0,120000m3,中型,小型,5.0,0.0,0.0,是,交通运输,0.0,0.0,5.10249400138855,0.285918691839526,60.0,Bare / Sparse vegetation,0.552213578647677,-0.509427353133357,Landsat 7,-55.4353826851147,284.6,1
1350,2013-12-31,米亚罗镇二古溪村纳窝组二古溪隧道上方,公路,滑坡,地震-降雨-人为因素,滑坡,,102.822222222222,31.5913888888889,2758.0,230.0,1500000m3,大型,小型,5.0,0.0,0.0,是,交通运输,0.0,0.0,5.39172577857971,0.739508371156621,10.0,Trees,,,Landsat 7,-23.6737766625269,201.25,1
1369,2013-12-31,米亚罗镇斯博果村下组河对面,聚集区,滑坡,地震-降雨,崩塌,,102.741944444444,31.6825,3112.0,300.0,7500m3,小型,中型,840.0,29.0,123.0,否,,0.0,0.0,3.1635320186615,0.385634321341108,10.0,Trees,0.77691885270139,-0.667415403723425,Landsat 7,1.9347553324478213,324.5,1
1370,2013-12-31,米亚罗镇八角碉村下组林业工作站后山,聚集区,滑坡,地震-降雨,滑坡,,102.8,31.6652777777778,2805.0,235.0,20000m3,小型,小型,42.0,11.0,47.0,否,,0.0,0.0,3.5392575263977,0.279229697376073,10.0,Trees,0.665437081957293,-0.618113585188892,Landsat 7,-42.3726474278996,201.25,1
1371,2013-12-31,米亚罗镇胆杆村胆杆组265,分散农户,滑坡,地震-降雨,滑坡,,102.760555555556,31.6891666666667,2845.0,80.0,80000m3,小型,小型,90.0,3.0,10.0,否,,0.0,0.0,3.5392575263977,0.279229697376073,50.0,Built-up,0.335063834295704,-0.334674963590626,Landsat 7,-122.383939774197,0.0,1
1372,2013-12-31,米亚罗镇胆杆村胆杆组烈士墓对面,分散农户,滑坡,地震-降雨,滑坡,,102.794166666667,31.6580555555556,2990.0,340.0,90000m3,小型,小型,80.0,4.0,20.0,否,,0.0,0.0,3.5392575263977,0.279229697376073,10.0,Trees,0.819706646698674,-0.706280304970222,Landsat 7,-3.17063989966709,284.6,1
1373,2013-12-31,米亚罗镇米亚罗村珊瑚沟,公路,滑坡,地震-降雨,滑坡,,102.783055555556,31.7063888888889,3180.0,80.0,150000m3,中型,小型,5.0,0.0,0.0,是,交通运输,0.0,0.0,1.81494557857513,0.346634496534119,10.0,Trees,0.702179147162709,-0.611408075899572,Landsat 7,49.27603513169743,270.0,1
1374,2013-12-31,米亚罗镇二古溪村纳窝组纳窝,聚集区,滑坡,地震-降雨,滑坡,,102.824166666667,31.5766666666667,2837.0,237.0,800000m3,中型,小型,220.0,10.0,45.0,否,,0.0,0.0,5.39172577857971,0.739508371156621,30.0,Grassland,0.534037247307264,-0.541104443970637,Landsat 7,30.047678795442152,381.84,1
1375,2013-12-31,米亚罗镇二古溪村纳山组纳山,聚集区,滑坡,地震-降雨,滑坡,,102.814166666667,31.5763888888889,2855.0,70.0,600000m3,中型,小型,480.0,16.0,67.0,否,,0.0,0.0,5.39172577857971,0.739508371156621,10.0,Trees,0.792247783369278,-0.696968665622944,Landsat 7,-11.8444165621517,524.79,1
1376,2013-12-31,米亚罗镇二古溪村纳窝组老晒坝,聚集区,滑坡,地震-降雨,滑坡,,102.823055555556,31.5802777777778,2896.0,262.0,120000m3,中型,小型,140.0,7.0,30.0,否,,0.0,0.0,5.39172577857971,0.739508371156621,30.0,Grassland,0.471878297439479,-0.500189562458896,Landsat 7,27.4516938519032,524.79,1
1377,2013-12-31,米亚罗镇长河坝村二组小木厂后山,聚集区,滑坡,地震-降雨,滑坡,,102.813055555556,31.6569444444444,2780.0,230.0,50000m3,小型,中型,520.0,18.0,60.0,否,,0.0,0.0,0.0,0.0591154982281563,10.0,Trees,0.743714506257926,-0.660743706718304,Landsat 7,-33.0276035132114,284.6,1
1378,2013-12-31,米亚罗镇长河坝村子多美洛组子多美洛,分散农户-公路-其它,滑坡,地震-降雨,滑坡,,102.819166666667,31.6491666666667,2807.0,355.0,25000m3,小型,小型,80.0,3.0,12.0,否,,0.0,0.0,5.10249400138855,0.285918691839526,10.0,Trees,0.81942881781862,-0.702469960788269,Landsat 7,13.76411543282984,90.0,1
1381,2017-05-27,米亚罗镇夹壁村桑丹寺上游两公里,分散农户,滑坡,降雨,滑坡,,102.820833333333,31.6288888888889,2963.0,68.0,900000m3,中型,小型,40.0,3.0,7.0,否,,,,,,10.0,Trees,0.794928903025537,-0.700291414481058,Landsat 7,-32.5370138017992,201.25,1
1383,2017-07-12,米亚罗镇大郎坝村大郎坝组河对面,公路-聚集区,滑坡,地震-降雨,滑坡,,102.741388888889,31.7283333333333,2974.0,200.0,20000m3,小型,中型,510.0,17.0,63.0,否,,,,,,50.0,Built-up,0.314240297685173,-0.324371552869651,Landsat 7,-91.4291091593941,0.0,1
1384,,米亚罗镇二古溪村纳窝组芦杆桥电站对岸,公路,滑坡,地震-降雨,滑坡,,102.821388888889,31.5816666666667,2790.0,282.0,160000m3,中型,小型,200.0,0.0,0.0,是,交通运输,,,,,10.0,Trees,,,,-2.08406524470683,360.0,1
1387,2019-05-16,米亚罗镇猛古村下猛组流沙槽,公路-河道,滑坡,地震-降雨,滑坡,,102.805833333333,31.5905555555556,2621.0,170.0,36000m3,小型,小型,20.0,0.0,0.0,是,水利（务）,,,,,60.0,Bare / Sparse vegetation,,,Landsat 7,-168.067754077829,90.0,1
1388,2019-07-12,米亚罗镇斯博果村上组三郎屋后,分散农户-公路,滑坡,地震-降雨-人为因素,滑坡,,102.735555555556,31.6805555555556,2984.0,40.0,3000m3,小型,小型,40.0,2.0,12.0,否,,,,,,10.0,Trees,,,Landsat 7,-59.5094102886241,90.0,1
1389,2019-07-17,米亚罗镇G317线K255+800,公路-河道,滑坡,地震-降雨,滑坡,,102.776388888889,31.6655555555556,2787.0,255.0,15000m3,小型,小型,80.0,0.0,0.0,是,交通运输,,,,,60.0,Bare / Sparse vegetation,,,Landsat 7,-122.805520702677,90.0,1
1390,2019-08-15,米亚罗镇长河坝村甲石口沟饮水池旁,河道,滑坡,地震-降雨,滑坡,,102.820833333333,31.6502777777778,2804.0,130.0,120m3,小型,小型,50.0,0.0,0.0,是,水利（务）,,,,,30.0,Grassland,,,Landsat 7,-56.0903387704333,90.0,1
1392,2019-06-23,米亚罗镇大郎坝村大郎组三郎房后,分散农户-公路,滑坡,地震-降雨,滑坡,,102.741944444444,31.7263888888889,2973.0,260.0,30000m3,小型,小型,120.0,4.0,13.0,否,,,,,,60.0,Bare / Sparse vegetation,0.290679994368577,-0.340610810929377,Landsat 7,-80.0301129235099,90.0,1
1393,2020-03-17,米亚罗镇猛古村下猛古组四方寨,公路,滑坡,地震-降雨,滑坡,,102.788333333333,31.5891666666667,2783.0,35.0,2000m3,小型,小型,5.0,0.0,0.0,是,交通运输,,,,,10.0,Trees,,,Landsat 7,-19.1430363864919,127.28,1
1394,1995-06-30,古尔沟镇沙坝村直理组直理,公路-聚集区,滑坡,地震-降雨,滑坡,,102.903055555556,31.5325,2510.0,40.0,110000m3,中型,小型,440.0,22.0,78.0,否,,0.0,22.0900764465332,104.299541473389,15.9576431021493,50.0,Built-up,,,Landsat 7,-24.5432873275162,180.0,1
1395,2013-12-31,古尔沟镇丘地村上组活动室对面,分散农户-公路,滑坡,地震-降雨,滑坡,,102.953888888889,31.5330555555556,2564.0,65.0,50000m3,小型,小型,60.0,3.0,14.0,否,,0.0,0.0,5.77651166915894,0.330937016550736,10.0,Trees,,,Landsat 7,-12.9799247177311,254.56,1
1445,,古尔沟镇温泉小镇温泉天寨接待中心后山,景区,滑坡,地震-降雨,滑坡,,102.994166666667,31.5219444444444,2714.0,333.0,150000m3,中型,中型,1000.0,1.0,200.0,是,旅游,,,,,30.0,Grassland,,,,-93.7703889586373,127.28,1
1479,2008-05-12,薛城镇箭山村波给,聚集区,滑坡,地震-降雨,滑坡,,103.348888888889,31.5555555555556,2661.0,275.0,1000m3,小型,小型,100.0,5.0,21.0,否,,0.0,0.0,44.9346795082092,1.82438169802414,10.0,Trees,0.773261074733165,-0.688162282326788,Landsat 7,39.52446675027432,324.5,1
1481,2013-12-31,薛城镇沙金村垮流沙滑坡、,河道,滑坡,地震-降雨,崩塌,,103.266666666667,31.5580555555556,1783.0,342.0,200000m3,中型,小型,0.0,0.0,0.0,是,水利（务）,0.0,0.0,0.0,0.0313593698768472,60.0,Bare / Sparse vegetation,0.114680530852374,-0.0911964426824532,Landsat 7,-85.1229611041671,90.0,1
1499,2013-12-31,薛城镇三寨村二组三寨,公路-聚集区,滑坡,地震-降雨,滑坡,,103.356944444444,31.5625,2160.0,338.0,1500000m3,大型,中型,1240.0,62.0,253.0,否,,0.0,0.0,0.0,0.051718064533317,10.0,Trees,0.808963560655365,-0.724577879246056,Landsat 7,-62.2584692597592,180.0,1
1500,2013-12-31,薛城镇列立村西洋坪组黄土坡王家梁子,分散农户-公路,滑坡,地震-降雨,滑坡,,103.331666666667,31.565,1591.0,152.0,1000000m3,大型,小型,120.0,6.0,21.0,否,,0.0,0.0,0.0,0.0309518274827969,10.0,Trees,0.713372031342356,-0.653285365389959,Landsat 7,-65.3764115433127,90.0,1
1501,2013-12-31,薛城镇木卡村八角组,公路-其它,滑坡,地震-降雨,滑坡,,103.376388888889,31.5769444444444,1684.0,219.0,80000m3,小型,小型,30.0,0.0,0.0,是,交通运输-水利（务）,0.0,0.0,0.0,0.051718064533317,30.0,Grassland,0.340868025440879,-0.381082212813474,Landsat 7,-55.7791718946289,270.0,1
1502,2013-12-31,薛城镇九子村龙窝组,公路-聚集区,滑坡,地震-降雨,滑坡,,103.339444444444,31.5866666666667,2271.0,180.0,200000m3,中型,小型,260.0,7.0,30.0,否,,0.0,0.0,0.0,0.0309518274827969,30.0,Grassland,0.480513469732239,-0.492357089931118,Landsat 7,-1.68506900881902,763.68,1
1503,2013-12-31,薛城镇九子村龙窝组九子村活动室,公路-聚集区,滑坡,地震-降雨,滑坡,,103.336666666667,31.5855555555556,2254.0,174.0,75000m3,小型,小型,340.0,17.0,60.0,否,,0.0,0.0,0.0,0.0309518274827969,30.0,Grassland,0.120069724108914,-0.194380171645761,Landsat 7,-6.54328732751355,725.6,1
1504,2013-12-31,薛城镇列立村尔瓦组,分散农户-公路,滑坡,地震-降雨,滑坡,,103.341666666667,31.5819444444444,2019.0,200.0,5000m3,小型,小型,80.0,4.0,21.0,否,,0.0,0.0,0.0,0.0309518274827969,30.0,Grassland,0.173438164045899,-0.25865933247734,Landsat 7,11.647427854423086,270.0,1
1505,2013-12-31,薛城镇三寨村一组牌坊,公路-聚集区,滑坡,地震-降雨,滑坡,,103.360555555556,31.5663888888889,1975.0,348.0,150000m3,中型,小型,360.0,13.0,62.0,否,,0.0,0.0,0.0,0.051718064533317,40.0,Cropland,0.128701636904762,-0.208179437912531,Landsat 7,-22.7139272271313,371.08,1
1506,2013-12-31,薛城镇列立村列立组,分散农户-公路,滑坡,地震-降雨,滑坡,,103.339166666667,31.5725,1556.0,198.0,200000m3,中型,小型,80.0,4.0,17.0,否,,0.0,0.0,0.0,0.0309518274827969,80.0,Permanent water bodies,0.0518778397653418,-0.0537110922263673,Landsat 7,-109.342534504414,0.0,1
1507,2013-12-31,薛城镇大岐村破碉房组韩刚军房后,公路,滑坡,地震-降雨,滑坡,,103.295277777778,31.5416666666667,1868.0,285.0,42750m3,小型,小型,5.0,0.0,0.0,是,交通运输,0.0,0.0,0.0,0.0297599521673243,10.0,Trees,0.232304969995384,-0.267708745548081,Landsat 7,1.360100376383116,381.84,1
1508,2013-12-31,薛城镇马山村马山组薛城中学后山,学校-场镇-公路,滑坡,地震-降雨,滑坡,,103.310555555556,31.5491666666667,1836.0,345.0,300000m3,中型,大型,1000.0,9.0,550.0,否,,0.0,0.0,0.0,0.0214842855355228,30.0,Grassland,0.113088026584513,-0.128775778850373,Landsat 7,19.48933500624753,458.91,1
1509,2013-12-31,薛城镇马山村黑刺坪组老法庭后山,场镇-公路,滑坡,地震-降雨,滑坡,,103.312777777778,31.55,1779.0,335.0,120000m3,中型,小型,260.0,13.0,43.0,否,,0.0,0.0,0.0,0.0214842855355228,30.0,Grassland,0.17352612785903,-0.232265778262737,Landsat 7,6.115432873250711,180.0,1
1510,2013-12-31,薛城镇塔子村塔子组火烧桥,分散农户-公路,滑坡,地震-降雨,滑坡,,103.273055555556,31.6205555555556,2218.0,235.0,3000m3,小型,小型,160.0,8.0,31.0,否,,0.0,0.0,0.0,0.0407835737446878,10.0,Trees,0.327764257054529,-0.409883010302078,Landsat 7,-21.9209535759423,180.0,1
1511,2013-12-31,薛城镇塔子村跟斗组色儿古地,分散农户,滑坡,地震-降雨,滑坡,,103.281944444444,31.635,2535.0,130.0,10000m3,小型,小型,20.0,1.0,4.0,否,,0.0,0.0,0.0,0.0407835737446878,10.0,Trees,0.502609858321977,-0.376112654829746,Landsat 7,1.214554579637479,324.5,1
1512,2013-12-31,薛城镇塔子村晒北组杨高阳房后,分散农户-公路,滑坡,地震-降雨,滑坡,,103.2925,31.6513888888889,2544.0,220.0,30000m3,小型,小型,20.0,1.0,5.0,否,,0.0,0.0,0.0,0.0547676517369176,10.0,Trees,0.258896923295052,-0.283052754353189,Landsat 7,-81.7013801756966,90.0,1
1513,2013-12-31,薛城镇甲米村汪家沟组石溜皮,分散农户-公路,滑坡,地震-降雨,滑坡,,103.281666666667,31.6066666666667,2325.0,190.0,90000m3,小型,小型,60.0,3.0,12.0,否,,0.0,0.0,0.0,0.0407835737446878,10.0,Trees,0.522826210088521,-0.489159677164108,Landsat 7,-24.6537013802148,180.0,1
1514,2013-12-31,薛城镇甲米村甲米组搭勇谷,公路-聚集区,滑坡,地震-降雨,滑坡,,103.273888888889,31.6191666666667,2118.0,190.0,20000m3,小型,小型,220.0,11.0,53.0,否,,0.0,0.0,0.0,0.0407835737446878,10.0,Trees,0.150170252690836,-0.204650597886694,Landsat 7,-102.744040150597,90.0,1
1515,2013-12-31,薛城镇甲米村日落组日落半山,公路-河道,滑坡,地震-降雨,滑坡,,103.273888888889,31.5933333333333,1976.0,115.0,150000m3,中型,小型,10.0,0.0,0.0,是,交通运输,0.0,0.0,0.0,0.0313593698768472,10.0,Trees,0.19059752834756,-0.267734605514544,Landsat 7,-121.850690087859,90.0,1
1516,2013-12-31,薛城镇马山村黑刺坪组下黑刺坪,公路-河道,滑坡,地震-降雨,滑坡,,103.306388888889,31.5455555555556,2012.0,350.0,240000m3,中型,小型,50.0,0.0,0.0,是,交通运输,0.0,0.0,0.0,0.0214842855355228,30.0,Grassland,0.180400808972238,-0.234321528819164,Landsat 7,19.85319949808695,603.74,1
1517,2013-12-31,薛城镇马山村黑刺坪组上黑刺坪,公路,滑坡,地震-降雨,滑坡,,103.299166666667,31.5441666666667,1840.0,345.0,36000m3,小型,小型,10.0,0.0,0.0,否,,0.0,0.0,0.0,0.0297599521673243,30.0,Grassland,0.208905427948159,-0.272300025659378,Landsat 7,-13.4968632371678,402.49,1
1518,2013-12-31,薛城镇沙金村沙金组桥头,聚集区,滑坡,地震-降雨-人为因素,滑坡,,103.315277777778,31.5569444444444,1584.0,185.0,200000m3,中型,小型,460.0,23.0,84.0,否,,0.0,0.0,0.0,0.0309518274827969,80.0,Permanent water bodies,0.0710398374573688,-0.124678540813411,Landsat 7,-82.3287327478285,0.0,1
1519,2013-12-31,薛城镇小歧村河坝组国道317线K182线+800m,公路,滑坡,地震-降雨,滑坡,,103.250833333333,31.5255555555556,1761.0,300.0,90000m3,小型,小型,5.0,0.0,0.0,是,交通运输,0.0,0.0,0.0,0.0297599521673243,10.0,Trees,0.225154861298142,-0.248267819167181,Landsat 7,-50.8080301129482,180.0,1
1520,2013-12-31,薛城镇箭山村半坡组垮达别,聚集区,滑坡,地震-降雨,滑坡,,103.336666666667,31.5527777777778,2353.0,330.0,81000m3,小型,中型,600.0,30.0,120.0,否,,0.0,0.0,0.0,0.0309518274827969,10.0,Trees,0.0954264362039201,-0.179182593354896,Landsat 7,5.074027603478498,1026.16,1
1521,2013-12-31,薛城镇箭山村半坡组多木立哈,分散农户,滑坡,地震-降雨,滑坡,,103.335,31.5508333333333,2346.0,300.0,6000m3,小型,小型,60.0,3.0,12.0,否,,0.0,0.0,0.0,0.0309518274827969,30.0,Grassland,0.242419594007261,-0.320399956526464,Landsat 7,-30.7917189460836,1279.14,1
1522,2013-12-31,薛城镇南沟村下寨组简棚子,公路,滑坡,地震-降雨,滑坡,,103.320555555556,31.5402777777778,1921.0,280.0,7200m3,小型,小型,5.0,0.0,0.0,是,交通运输,0.0,0.0,0.0,0.0214842855355228,10.0,Trees,0.289929364278507,-0.337126838350662,Landsat 7,-142.397741530772,90.0,1
1523,2013-12-31,薛城镇南沟村下寨组磨湾刀,分散农户-公路,滑坡,地震-降雨,滑坡,,103.325277777778,31.5375,2069.0,250.0,60000m3,小型,小型,20.0,1.0,6.0,否,,0.0,0.0,0.0,0.0214842855355228,30.0,Grassland,0.239478899510375,-0.302752293577982,Landsat 7,-102.353826850723,127.28,1
1524,2013-12-31,薛城镇南沟村下寨组银扁担,公路,滑坡,地震-降雨,滑坡,,103.326666666667,31.5355555555556,2138.0,250.0,13500m3,小型,小型,10.0,0.0,0.0,是,交通运输,0.0,0.0,0.0,0.0214842855355228,10.0,Trees,0.218551109635287,-0.296702002355713,Landsat 7,-71.5483061480913,127.28,1
1525,2013-12-31,薛城镇小岐村高山组317国道184大石包,分散农户-公路,滑坡,地震-降雨,滑坡,,103.264166666667,31.5280555555556,1912.0,350.0,24000m3,小型,小型,340.0,17.0,68.0,否,,0.0,0.0,0.0,0.0297599521673243,30.0,Grassland,0.200824145835607,-0.322722217212253,Landsat 7,1.3199498117658095,90.0,1
1526,2013-12-31,薛城镇小岐村高山组望月寨,分散农户-公路,滑坡,地震-降雨,滑坡,,103.27,31.5283333333333,1955.0,0.0,36000m3,小型,小型,80.0,4.0,19.0,否,,0.0,0.0,0.0,0.0297599521673243,30.0,Grassland,0.0935812027367662,-0.165423452378097,Landsat 7,0.7101631116363478,284.6,1
1530,2013-12-31,薛城镇欢喜村欢喜金儿坟,分散农户,滑坡,地震-降雨,滑坡,,103.330277777778,31.5613888888889,1756.0,330.0,45000m3,小型,小型,200.0,9.0,31.0,否,,0.0,0.0,0.0,0.0309518274827969,30.0,Grassland,0.116695312036982,-0.195740468091588,Landsat 7,22.76662484313283,324.5,1
1538,2018-04-09,薛城填小岐村河坝组,分散农户-公路-河道,滑坡,地震-降雨,滑坡,,103.253055555556,31.5258333333333,1825.0,140.0,150000m3,中型,小型,150.0,5.0,27.0,否,,,,,,10.0,Trees,0.21259054040522,-0.129250854833696,Landsat 7,-41.1994981179691,254.56,1
1540,2018-05-28,薛城镇大岐村河坝组马王庙,分散农户-公路-河道,滑坡,地震-降雨,滑坡,,103.286944444444,31.5380555555556,1685.0,140.0,64350m3,小型,小型,200.0,4.0,22.0,否,,,,,,30.0,Grassland,0.184983516687039,-0.213665161804317,Landsat 7,-46.9084065244935,90.0,1
1548,2017-07-22,薛城镇马山村小黑刺坪,公路-其它,滑坡,地震-降雨,滑坡,,103.306666666667,31.5475,1865.0,320.0,90000m3,小型,小型,20.0,0.0,0.0,是,交通运输,,,,,30.0,Grassland,0.220142973788139,-0.321124422632794,Landsat 7,4.774153073999059,381.84,1
1549,2017-07-22,薛城镇老街西门后山,场镇-公路,滑坡,地震-降雨,滑坡,,103.308888888889,31.5491666666667,1788.0,345.0,90000m3,小型,小型,80.0,4.0,13.0,否,,,,,,10.0,Trees,0.157634271487992,-0.189616710606368,Landsat 7,-17.0966122961374,381.84,1
1552,2017-07-07,薛城镇九子村基不达,公路-聚集区,滑坡,地震-降雨,滑坡,,103.341666666667,31.5866666666667,2200.0,168.0,25000m3,小型,小型,400.0,6.0,28.0,否,,,,,,30.0,Grassland,0.15334209404745,-0.231141061730501,Landsat 7,-46.1053952321553,603.74,1
1553,2017-07-07,薛城镇列立村回龙电站后山,场镇-公路-河道-其它-水库电站,滑坡,地震-降雨-人为因素,滑坡,,103.333888888889,31.5666666666667,1570.0,80.0,1200000m3,大型,中型,1290.0,43.0,144.0,否,,,,,,60.0,Bare / Sparse vegetation,0.0295305460232975,-0.0791328178525987,Landsat 7,-81.3626097867256,90.0,1
1558,2017-08-07,薛城镇木卡村下河坝组关门坡上部,河道-聚集区,滑坡,地震-降雨,滑坡,,103.372777777778,31.5755555555556,1571.0,187.0,110000m3,中型,小型,450.0,19.0,93.0,否,,,,,,60.0,Bare / Sparse vegetation,0.103491569060598,-0.14773337741229,Landsat 7,-74.5470514429364,90.0,1
1559,2017-07-12,薛城镇小岐村河坝组跨石岩,公路-河道,滑坡,地震-降雨,滑坡,,103.259166666667,31.5266666666667,1945.0,165.0,720000m3,中型,中型,500.0,0.0,0.0,是,交通运输-水利（务）,,,,,30.0,Grassland,0.253995370880635,-0.339455211690433,Landsat 7,-21.6787954830913,360.0,1
1560,2017-09-01,薛城镇列立村有利沟,聚集区,滑坡,地震-降雨,滑坡,,103.344166666667,31.5816666666667,1908.0,125.0,15000m3,小型,小型,120.0,6.0,22.0,否,,,,,,30.0,Grassland,0.164021760577275,-0.236888609338964,Landsat 7,-79.5006273526012,0.0,1
1561,2018-06-20,薛城镇列立村尔瓦组右侧冲沟内,公路-其它,滑坡,地震-降雨-人为因素,滑坡,,103.333333333333,31.5766666666667,1879.0,160.0,475000m3,中型,小型,20.0,0.0,0.0,是,其他,,,,,30.0,Grassland,0.0565731487510498,-0.0891333741889669,Landsat 7,24.98243412795045,201.25,1
1562,2008-05-12,薛城镇三寨村一组上风梁子,分散农户-公路-河道,滑坡,地震-降雨-人为因素-其他,滑坡,,103.3575,31.5702777777778,1784.0,320.0,100000m3,中型,中型,540.0,27.0,114.0,否,,0.0,0.0,44.6448936462402,1.73333996612085,10.0,Trees,0.13388928916346,-0.246326750690841,Landsat 7,-5.55207026351854,324.5,1
1563,,薛城镇箭山村半坡组,公路,滑坡,地震-降雨-人为因素,滑坡,,103.336388888889,31.5519444444444,2359.0,330.0,321300m3,中型,小型,50.0,0.0,0.0,是,交通运输,,,,,10.0,Trees,,,,-9.43036386452922,1083.74,1
1565,2018-11-06,薛城镇马山村施工基地后山,分散农户-公路-河道,滑坡,地震-降雨-人为因素,滑坡,,103.309444444444,31.5491666666667,1800.0,330.0,2800000m3,大型,小型,280.0,18.0,71.0,否,,,,,,30.0,Grassland,0.176474080230332,-0.208027917892138,Landsat 7,-12.4090338770652,450.0,1
1568,2019-09-02,薛城镇九子村水井,分散农户-公路,滑坡,地震-降雨,滑坡,,103.336944444444,31.5833333333333,2156.0,156.0,30000m3,小型,小型,150.0,5.0,23.0,否,,,,,,10.0,Trees,0.20037402958893,-0.28106941446773,Landsat 7,5.297365119164169,725.6,1
1570,2017-07-13,薛城镇小岐村上组徐正康房上,分散农户-公路,滑坡,地震-降雨,滑坡,,103.267777777778,31.5233333333333,2188.0,330.0,30000m3,小型,小型,120.0,6.0,26.0,否,,,,,,30.0,Grassland,0.145498695383316,-0.180154142581888,Landsat 7,-1.43161856966844,484.66,1
1571,2019-05-13,薛城镇小岐村上组插尔黑,分散农户,滑坡,地震,滑坡,,103.263888888889,31.52,2324.0,0.0,13500m3,小型,小型,120.0,6.0,26.0,否,,,,,,10.0,Trees,0.353678830381552,-0.435811769155609,Landsat 7,-51.0815558344143,540.0,1
1572,2019-05-01,薛城镇甲米村甲米组二道桥,公路-河道,滑坡,地震-降雨,滑坡,,103.275277777778,31.5863888888889,2253.0,80.0,3000m3,小型,小型,10.0,0.0,0.0,是,交通运输-水利（务）,,,,,10.0,Trees,0.36818673800723,-0.395459279316809,Landsat 7,25.485570890801228,284.6,1
1575,,薛城镇木卡村下河坝组汶马高速6标段弃渣场,河道,滑坡,地震-降雨,滑坡,,103.373333333333,31.575,1549.0,185.0,2100000m3,大型,小型,80.0,0.0,0.0,是,水利（务）-其他,,,,,30.0,Grassland,,,,-85.322459222109,90.0,1
1577,2008-05-12,薛城镇小岐村高山组洼巴列时,分散农户,滑坡,地震-降雨,滑坡,,103.274166666667,31.525,2255.0,350.0,90000m3,小型,小型,20.0,1.0,4.0,否,,0.0,0.0,47.2221937179565,2.10192651662245,10.0,Trees,0.290789021952057,-0.373149719638215,Landsat 7,-8.56336260982198,725.6,1
1579,2018-07-20,薛城镇南沟村下寨组磨湾刀对面,公路-河道,滑坡,地震-降雨,滑坡,滑坡,103.323333333333,31.5366666666667,2099.0,27.0,40000m3,小型,小型,10.0,0.0,0.0,是,交通运输,,,,,30.0,Grassland,0.267990592679361,-0.36507160662789,Landsat 7,-85.1166875784529,90.0,1
